PITCH	ROLL	YAW	BPPS	Roll_Rate_x	Pitch_Rate_y	Yaw_Rate_z	ANGLE	Altidude	Barometric_Pressure	APPS_1	APPS_2	APPS_AV	IMP_FLAG	a_x	a_y	a_z	Heading	Status	PosU	VelU	Latitude	Longitude	V1	V2	V3	V4	V5	V6	v_x	v_y	v_z	T1	T2	T3	REFRI_ON	LV_ON	CURRENT	V_max	V_mean	V_min	V_tot	R2D	SCS	SL	BSPD	IMD	AMS	APPS	IMU	REFRI	RIGHT_INV	LEFT_INV	rrRPM	rrTRQ	rlRPM	rlTRQ	speed	trqLimit	leftDem	rightDem	leftPowerStageTemp	rightPowerStageTemp	leftMotorTemp	rightMotorTemp
1.4000000000000001	0.22	-41.410000000000004	6	-0.006	-0.002	-0.01	17	0.0	0.002688	0	0	0	0	0.277	0.02	-9.425	0.68	128	0.0	0.0	0.0	0.0	3.99	3.99	4.1	4.16	4.18	4.17	0.0	0.0	0.0	23.900000000000002	23.400000000000002	24.0	1	1	7.0	4.21	4.11	4.0200000000000005	24.7	1	1	1	1	1	1	0	0	1	1	1	0	0	0	0	0	150	0	0	21	22	16	17
1.4000000000000001	0.22	-41.42	6	-0.001	0.002	-0.013000000000000001	17	0.0	0.0032384	0	0	0	0	0.354	0.058	-9.421	0.68	128	0.0	0.0	0.0	0.0	4.04	4.01	4.13	4.11	4.1	4.14	0.0	0.0	0.0	23.900000000000002	23.400000000000002	24.0	1	1	8.0	4.23	4.12	4.0	24.77	1	1	1	1	1	1	0	0	1	1	1	0	0	0	0	0	150	0	0	21	22	16	17
1.41	0.22	-41.42	6	0.004	0.003	-0.014	17	0.0	0.0032384	0	0	0	0	0.198	-0.009000000000000001	-9.269	0.7000000000000001	-32640	0.0	0.0	0.0	0.0	4.01	3.99	4.14	4.15	4.18	4.13	0.0	0.0	0.0	23.900000000000002	23.400000000000002	24.0	1	1	7.0	4.2	4.11	4.0	24.71	1	1	1	1	1	1	0	0	1	1	1	0	0	0	0	0	150	0	0	21	22	16	17
1.41	0.22	-41.43	6	0.005	0.003	-0.01	17	0.0	0.002688	0	0	0	0	0.093	-0.095	-9.217	0.6900000000000001	-32640	0.0	0.0	0.0	0.0	4.0	3.99	4.08	4.13	4.15	4.17	0.0	0.0	0.0	23.900000000000002	23.400000000000002	24.0	1	1	8.0	4.23	4.12	4.01	24.72	1	1	1	1	1	1	0	0	1	1	1	0	0	0	0	0	150	0	0	21	22	16	17
1.41	0.23	-41.44	5	0.004	-0.003	-0.01	17	0.0	0.0032384	0	0	0	0	0.247	-0.025	-9.319	0.67	-32640	0.0	0.0	0.0	0.0	4.03	4.0200000000000005	4.15	4.19	4.21	4.18	0.0	0.0	0.0	23.900000000000002	23.5	24.0	1	1	7.0	4.22	4.13	4.05	24.79	1	1	1	1	1	1	0	0	1	1	1	0	0	0	0	0	150	0	0	21	23	16	17
1.4000000000000001	0.23	-41.45	5	0.0	-0.002	-0.012	17	0.0	-0.002208	0	0	0	0	0.321	-0.029	-9.281	0.68	128	0.0	0.0	0.0	0.0	4.01	3.99	4.1	4.17	4.16	4.17	0.0	0.0	0.0	23.900000000000002	23.5	24.0	1	1	8.0	4.22	4.13	4.01	24.79	1	1	1	1	1	1	0	0	1	1	1	0	0	0	0	0	150	0	0	21	23	16	17
1.41	0.23	-41.45	5	-0.003	0.002	-0.012	17	0.0	0.0016895999999999999	0	0	0	0	0.343	-0.069	-9.316	0.68	128	0.0	0.0	0.0	0.0	4.01	4.05	4.07	4.13	4.19	4.18	0.0	0.0	0.0	23.900000000000002	23.400000000000002	24.0	1	1	8.0	4.2	4.11	4.0	24.71	1	1	1	1	1	1	0	0	1	1	1	0	0	0	0	0	150	0	0	21	23	16	17
1.41	0.22	-41.46	5	-0.004	0.004	-0.012	17	0.0	0.0032384	0	0	0	0	0.054	0.056	-9.306000000000001	0.67	-32640	0.0	0.0	0.0	0.0	4.01	4.03	4.09	4.12	4.17	4.15	0.0	0.0	0.0	23.900000000000002	23.400000000000002	24.0	1	1	8.0	4.24	4.13	4.0	24.79	1	1	1	1	1	1	0	0	1	1	1	0	0	0	0	0	150	0	0	21	23	16	17
1.41	0.21	-41.480000000000004	5	-0.004	0.001	-0.013000000000000001	17	0.0	0.0032384	0	0	0	0	0.101	-0.044	-9.153	0.67	-32640	0.0	0.0	0.0	0.0	4.0	3.99	4.08	4.14	4.19	4.16	0.0	0.0	0.0	23.900000000000002	23.5	24.0	1	1	8.0	4.24	4.13	4.0	24.79	1	1	1	1	1	1	0	0	1	1	1	0	0	0	0	0	150	0	0	21	23	18	17
1.4000000000000001	0.22	-41.49	5	0.004	-0.004	-0.012	17	0.0	0.000576	0	0	0	0	0.393	-0.015	-9.35	0.68	-32640	0.0	0.0	0.0	0.0	4.0	3.99	4.08	4.14	4.19	4.16	0.0	0.0	0.0	23.900000000000002	23.400000000000002	24.0	1	1	8.0	4.24	4.13	4.01	24.79	1	1	1	1	1	1	0	0	1	1	1	0	0	0	0	0	150	0	0	21	23	18	17
1.41	0.22	-41.49	5	0.0	0.003	-0.01	17	0.0	0.0032384	0	0	0	0	0.423	0.062	-9.370000000000001	0.68	128	0.0	0.0	0.0	0.0	4.01	4.03	4.12	4.16	4.16	4.16	0.0	0.0	0.0	24.0	23.400000000000002	24.0	1	1	8.0	4.24	4.13	4.01	24.79	1	1	1	1	1	1	0	0	1	1	1	0	0	0	0	0	150	0	0	21	23	18	17
1.41	0.22	-41.5	5	-0.002	0.0	-0.009000000000000001	17	0.0	0.0011328	0	0	0	0	0.186	0.04	-9.375	0.6900000000000001	128	0.0	0.0	0.0	0.0	4.03	4.0200000000000005	4.11	4.17	4.22	4.22	0.0	0.0	0.0	24.0	23.400000000000002	24.0	1	1	7.0	4.2700000000000005	4.14	4.01	24.88	1	1	1	1	1	1	0	0	1	1	1	0	0	0	0	0	150	0	0	21	23	18	17
1.41	0.22	-41.5	5	0.0	-0.001	-0.018000000000000002	17	0.0	0.0016895999999999999	0	0	0	0	-0.028	-0.099	-9.281	0.67	128	0.0	0.0	0.0	0.0	4.08	4.01	4.08	4.13	4.21	4.21	0.0	0.0	0.0	23.900000000000002	23.400000000000002	24.0	1	1	8.0	4.19	4.1	4.01	24.62	1	1	1	1	1	1	0	0	1	1	1	0	0	0	0	0	150	0	0	21	23	17	17
1.4000000000000001	0.22	-41.51	4	0.0	0.0	-0.011	17	0.0	0.00224	0	0	0	0	0.154	-0.159	-9.337	0.7000000000000001	-32640	0.0	0.0	0.0	0.0	4.05	4.01	4.08	4.16	4.24	4.25	0.0	0.0	0.0	23.900000000000002	23.5	24.0	1	1	8.0	4.16	4.08	4.0	24.53	1	1	1	1	1	1	0	0	1	1	1	0	0	0	0	0	150	0	0	21	23	17	17
1.4000000000000001	0.22	-41.51	4	0.0	0.0	-0.011	17	0.0	-0.00031999999999999997	0	0	0	0	0.41200000000000003	0.114	-9.304	0.7000000000000001	-32640	0.0	0.0	0.0	0.0	4.0200000000000005	4.0	4.0600000000000005	4.16	4.25	4.17	0.0	0.0	0.0	23.900000000000002	23.400000000000002	24.0	1	1	8.0	4.24	4.11	3.98	24.68	1	1	1	1	1	1	0	0	1	1	1	0	0	0	0	0	150	0	0	21	23	17	17
1.41	0.22	-41.52	4	0.001	-0.002	-0.01	17	0.0	0.0016895999999999999	0	0	0	0	0.135	0.15	-9.314	0.68	128	0.0	0.0	0.0	0.0	4.04	4.01	4.04	4.19	4.22	4.12	0.0	0.0	0.0	23.900000000000002	23.400000000000002	24.0	1	1	7.0	4.23	4.12	4.01	24.76	1	1	1	1	1	1	0	0	1	1	1	0	0	0	0	0	150	0	0	21	23	17	17
1.41	0.22	-41.53	4	0.002	0.0	-0.014	17	0.0	-0.00031999999999999997	0	0	0	0	0.002	-0.013000000000000001	-9.402000000000001	0.68	128	0.0	0.0	0.0	0.0	4.07	3.99	4.11	4.15	4.18	4.23	0.0	0.0	0.0	23.900000000000002	23.400000000000002	24.0	1	1	7.0	4.21	4.12	4.01	24.72	1	1	1	1	1	1	0	0	1	1	1	0	0	0	0	0	150	0	0	21	23	18	17
1.41	0.21	-41.54	4	0.0	0.0	-0.018000000000000002	17	0.0	0.0016895999999999999	0	0	0	0	0.189	-0.11900000000000001	-9.418000000000001	0.7000000000000001	-32640	0.0	0.0	0.0	0.0	4.03	3.99	4.13	4.16	4.18	4.15	0.0	0.0	0.0	23.900000000000002	23.400000000000002	24.0	1	1	8.0	4.18	4.1	4.0	24.63	1	1	1	1	1	1	0	0	1	1	1	0	0	0	0	0	150	0	0	21	23	18	17
1.4000000000000001	0.21	-41.54	4	-0.001	0.0	-0.016	17	0.0	-0.0017599999999999998	0	0	0	0	0.367	-0.132	-9.372	0.67	-32640	0.0	0.0	0.0	0.0	4.04	4.0	4.09	4.13	4.22	4.22	0.0	0.0	0.0	24.0	23.5	24.0	1	1	7.0	4.21	4.12	4.0	24.73	1	1	1	1	1	1	0	0	1	1	1	0	0	0	0	0	150	0	0	21	23	18	17
1.4000000000000001	0.22	-41.550000000000004	4	-0.004	0.001	-0.011	17	0.0	0.0016895999999999999	0	0	0	0	0.355	-0.051000000000000004	-9.256	0.68	128	0.0	0.0	0.0	0.0	4.01	3.98	4.09	4.14	4.18	4.17	0.0	0.0	0.0	24.0	23.400000000000002	24.0	1	1	7.0	4.23	4.14	4.03	24.89	1	1	1	1	1	1	0	0	1	1	1	0	0	0	0	0	150	0	0	21	23	18	17
1.4000000000000001	0.23	-41.56	4	0.001	0.0	-0.012	17	0.0	0.0027968	0	0	0	0	0.20500000000000002	0.067	-9.312	0.68	128	0.0	0.0	0.0	0.0	4.01	4.01	4.08	4.14	4.17	4.17	0.0	0.0	0.0	23.900000000000002	23.5	24.0	1	1	8.0	4.18	4.08	3.98	24.51	1	1	1	1	1	1	0	0	1	1	1	0	0	0	0	0	150	0	0	21	23	18	17
1.41	0.22	-41.57	4	0.003	0.001	-0.016	17	0.0	0.00224	0	0	0	0	0.132	0.067	-9.295	0.68	128	0.0	0.0	0.0	0.0	4.01	4.05	4.08	4.13	4.21	4.23	0.0	0.0	0.0	23.900000000000002	23.5	24.0	1	1	8.0	4.24	4.12	4.0	24.75	1	1	1	1	1	1	0	0	1	1	1	0	0	0	0	0	150	0	0	21	23	18	17
1.41	0.22	-41.58	4	-0.002	0.0	-0.01	17	0.0	0.00224	0	0	0	0	0.203	-0.042	-9.322000000000001	0.66	128	0.0	0.0	0.0	0.0	4.01	4.03	4.14	4.2	4.26	4.26	0.0	0.0	0.0	23.900000000000002	23.400000000000002	24.0	1	1	7.0	4.22	4.11	4.01	24.68	1	1	1	1	1	1	0	0	1	1	1	0	0	0	0	0	150	0	0	21	23	18	17
1.4000000000000001	0.21	-41.58	4	-0.003	0.001	-0.011	17	0.0	0.0016895999999999999	0	0	0	0	0.28500000000000003	-0.08	-9.383000000000001	0.66	-32640	0.0	0.0	0.0	0.0	4.0	3.99	4.11	4.17	4.15	4.15	0.0	0.0	0.0	23.900000000000002	23.400000000000002	24.0	1	1	7.0	4.24	4.12	4.0	24.77	1	1	1	1	1	1	0	0	1	1	1	0	0	0	0	0	150	0	0	21	23	18	17
1.4000000000000001	0.21	-41.58	4	-0.001	0.004	-0.016	17	0.0	0.0016895999999999999	0	0	0	0	0.23800000000000002	-0.027	-9.364	0.67	128	0.0	0.0	0.0	0.0	4.0	4.01	4.08	4.16	4.16	4.18	0.0	0.0	0.0	23.900000000000002	23.400000000000002	24.0	1	1	7.0	4.23	4.11	4.01	24.7	1	1	1	1	1	1	0	0	1	1	1	0	0	0	0	0	150	0	0	21	23	17	17
1.4000000000000001	0.22	-41.59	4	0.002	-0.003	-0.013000000000000001	17	0.0	0.0027968	0	0	0	0	0.17500000000000002	0.057	-9.276	0.68	128	0.0	0.0	0.0	0.0	4.04	4.05	4.12	4.11	4.11	4.12	0.0	0.0	0.0	23.900000000000002	23.5	24.0	1	1	7.0	4.18	4.1	4.0	24.64	1	1	1	1	1	1	0	0	1	1	1	0	0	0	0	0	150	0	0	21	23	17	17
1.41	0.22	-41.6	4	-0.003	0.002	-0.01	17	0.0	-0.0028672	0	0	0	0	0.232	0.007	-9.285	0.6900000000000001	128	0.0	0.0	0.0	0.0	4.01	4.01	4.13	4.17	4.16	4.15	0.0	0.0	0.0	23.900000000000002	23.400000000000002	24.0	1	1	7.0	4.2	4.11	4.01	24.7	1	1	1	1	1	1	0	0	1	1	1	0	0	0	0	0	150	0	0	21	23	17	17
1.4000000000000001	0.22	-41.61	4	0.001	0.0	-0.012	17	0.0	-0.0017599999999999998	0	0	0	0	0.315	-0.042	-9.364	0.68	-32640	0.0	0.0	0.0	0.0	4.0	4.03	4.16	4.15	4.12	4.17	0.0	0.0	0.0	23.900000000000002	23.400000000000002	24.0	1	1	7.0	4.21	4.11	4.0	24.7	1	1	1	1	1	1	0	0	1	1	1	0	0	0	0	0	150	0	0	21	23	17	17
1.4000000000000001	0.21	-41.61	4	0.001	0.0	-0.015	17	0.0	0.00224	0	0	0	0	0.26	-0.109	-9.356	0.67	-32640	0.0	0.0	0.0	0.0	4.0200000000000005	3.99	4.14	4.15	4.16	4.16	0.0	0.0	0.0	23.900000000000002	23.5	24.1	1	1	7.0	4.19	4.09	3.97	24.59	1	1	1	1	1	1	0	0	1	1	1	0	0	0	0	0	150	0	0	21	23	17	17
1.41	0.21	-41.62	4	0.002	-0.003	-0.013000000000000001	17	0.0	-0.000864	0	0	0	0	0.387	-0.004	-9.373	0.7000000000000001	-32640	0.0	0.0	0.0	0.0	4.0	3.98	4.09	4.16	4.24	4.15	0.0	0.0	0.0	23.900000000000002	23.400000000000002	24.0	1	1	7.0	4.21	4.11	4.0	24.69	1	1	1	1	1	1	0	0	1	1	1	0	0	0	0	0	150	0	0	21	23	17	17
1.41	0.22	-41.62	4	-0.003	0.002	-0.01	17	0.0	0.00023679999999999998	0	0	0	0	0.323	-0.117	-9.288	0.66	128	0.0	0.0	0.0	0.0	4.0	4.01	4.12	4.18	4.2	4.18	0.0	0.0	0.0	23.900000000000002	23.400000000000002	24.0	1	1	7.0	4.18	4.11	4.0200000000000005	24.68	1	1	1	1	1	1	0	0	1	1	1	0	0	0	0	0	150	0	0	21	23	17	17
1.4000000000000001	0.22	-41.71	4	-0.001	0.001	-0.009000000000000001	17	0.0	-0.00031999999999999997	0	0	0	0	0.34500000000000003	0.029	-9.33	0.6900000000000001	128	0.0	0.0	0.0	0.0	4.01	4.01	4.08	4.14	4.22	4.17	0.0	0.0	0.0	23.900000000000002	23.400000000000002	24.0	1	1	7.0	4.18	4.08	4.0	24.51	1	1	1	1	1	1	0	0	1	1	1	0	0	0	0	0	150	0	0	21	23	17	17
1.3900000000000001	0.22	-41.71	4	0.001	-0.003	-0.012	17	0.0	0.00023679999999999998	0	0	0	0	0.28300000000000003	-0.054	-9.347	0.68	-32640	0.0	0.0	0.0	0.0	4.04	4.01	4.0600000000000005	4.13	4.18	4.22	0.0	0.0	0.0	23.900000000000002	23.400000000000002	24.0	1	1	7.0	4.19	4.09	4.01	24.59	1	1	1	1	1	1	0	0	1	1	1	0	0	0	0	0	150	0	0	21	23	16	17
1.41	0.21	-41.72	4	0.002	-0.001	-0.01	17	0.0	-0.00031999999999999997	0	0	0	0	0.222	-0.092	-9.339	0.6900000000000001	-32640	0.0	0.0	0.0	0.0	4.0	4.0	4.11	4.14	4.15	4.15	0.0	0.0	0.0	23.900000000000002	23.5	24.0	1	1	7.0	4.16	4.08	4.0	24.52	1	1	1	1	1	1	0	0	1	1	1	0	0	0	0	0	150	0	0	21	23	16	17
1.41	0.21	-41.69	4	0.0	0.0	-0.01	17	0.0	0.00023679999999999998	0	0	0	0	0.08600000000000001	-0.10200000000000001	-9.326	0.68	-32640	0.0	0.0	0.0	0.0	4.0200000000000005	4.04	4.1	4.24	4.24	4.23	0.0	0.0	0.0	24.0	23.5	24.0	1	1	7.0	4.26	4.13	3.99	24.810000000000002	1	1	1	1	1	1	0	0	1	1	1	0	0	0	0	0	150	0	0	21	23	16	17
1.41	0.22	-41.7	4	-0.002	-0.002	-0.012	17	0.0	-0.000864	0	0	0	0	0.387	-0.004	-9.373	0.67	128	0.0	0.0	0.0	0.0	4.03	3.99	4.11	4.17	4.2	4.17	0.0	0.0	0.0	23.900000000000002	23.400000000000002	24.0	1	1	7.0	4.21	4.11	4.0	24.67	1	1	1	1	1	1	0	0	1	1	1	0	0	0	0	0	150	0	0	21	23	16	17
1.4000000000000001	0.22	-41.71	4	0.0	0.0	-0.01	17	0.0	0.00023679999999999998	0	0	0	0	0.323	-0.117	-9.288	0.71	128	0.0	0.0	0.0	0.0	4.0	3.98	4.1	4.14	4.16	4.1	0.0	0.0	0.0	24.0	23.5	24.0	1	1	7.0	4.19	4.09	3.99	24.580000000000002	1	1	1	1	1	1	0	0	1	1	1	0	0	0	0	0	150	0	0	22	23	17	17
1.3900000000000001	0.22	-41.71	4	0.001	-0.003	-0.012	17	0.0	-0.00031999999999999997	0	0	0	0	0.264	-0.037	-9.339	0.6900000000000001	-32640	0.0	0.0	0.0	0.0	4.05	4.03	4.09	4.08	4.17	4.16	0.0	0.0	0.0	23.900000000000002	23.5	24.0	1	1	7.0	4.15	4.09	4.01	24.580000000000002	1	1	1	1	1	1	0	0	1	1	1	0	0	0	0	0	150	0	0	22	23	17	17
1.41	0.21	-41.72	3	0.002	-0.001	-0.01	17	0.0	0.00023679999999999998	0	0	0	0	0.24	-0.08700000000000001	-9.404	0.6900000000000001	-32640	0.0	0.0	0.0	0.0	3.99	4.03	4.08	4.08	4.12	4.12	0.0	0.0	0.0	23.900000000000002	23.5	24.0	1	1	7.0	4.1	4.0600000000000005	3.99	24.37	1	1	1	1	1	1	0	0	1	1	1	0	0	0	0	0	150	0	0	22	23	17	17
1.42	0.21	-41.72	3	0.0	0.0	-0.01	17	0.0	-0.0012096	0	0	0	0	0.196	-0.08	-9.34	0.68	-32640	0.0	0.0	0.0	0.0	4.01	4.0600000000000005	4.13	4.17	4.18	4.16	0.0	0.0	0.0	23.900000000000002	23.400000000000002	24.0	1	1	7.0	4.2	4.1	4.0	24.6	1	1	1	1	1	1	0	0	1	1	1	0	0	0	0	0	150	0	0	22	23	17	17
1.41	0.22	-41.81	3	-0.002	-0.002	-0.012	17	0.0	-0.0023168	0	0	0	0	0.23900000000000002	-0.133	-9.329	0.71	128	0.0	0.0	0.0	0.0	4.0	3.98	4.13	4.14	4.18	4.14	0.0	0.0	0.0	23.900000000000002	23.400000000000002	24.0	1	1	7.0	4.17	4.09	3.98	24.560000000000002	1	1	1	1	1	1	0	0	1	1	1	0	0	0	0	0	150	0	0	22	23	16	17
1.42	0.22	-41.81	3	0.0	0.0	-0.011	17	0.0	-0.0023168	0	0	0	0	0.245	-0.101	-9.347	0.6900000000000001	128	0.0	0.0	0.0	0.0	4.0200000000000005	3.98	4.12	4.17	4.26	4.25	0.0	0.0	0.0	23.900000000000002	23.5	24.0	1	1	7.0	4.18	4.09	3.98	24.59	1	1	1	1	1	1	0	0	1	1	1	0	0	0	0	0	150	0	0	22	23	16	17
1.41	0.22	-41.82	3	0.0	0.0	-0.009000000000000001	17	0.0	-0.0012096	0	0	0	0	0.264	-0.037	-9.339	0.6900000000000001	-32640	0.0	0.0	0.0	0.0	4.0	4.0	4.1	4.11	4.15	4.18	0.0	0.0	0.0	24.0	23.5	24.0	1	1	7.0	4.25	4.12	3.99	24.77	1	1	1	1	1	1	0	0	1	1	1	0	0	0	0	0	150	0	0	22	23	16	17
1.41	0.22	-41.82	3	0.001	0.0	-0.01	17	0.0	-0.0023168	0	0	0	0	0.24	-0.08700000000000001	-9.404	0.6900000000000001	-32640	0.0	0.0	0.0	0.0	4.0200000000000005	3.99	4.09	4.17	4.18	4.17	0.0	0.0	0.0	24.0	23.400000000000002	24.0	1	1	8.0	4.22	4.12	4.01	24.740000000000002	1	1	1	1	1	1	0	0	1	1	1	0	0	0	0	0	150	0	0	22	23	16	17
1.41	0.21	-41.76	3	0.002	-0.001	-0.011	17	0.0	-0.0023168	0	0	0	0	0.196	-0.08	-9.34	0.72	-32640	0.0	0.0	0.0	0.0	4.04	4.01	4.15	4.15	4.21	4.19	0.0	0.0	0.0	23.900000000000002	23.400000000000002	24.0	1	1	7.0	4.16	4.09	3.99	24.580000000000002	1	1	1	1	1	1	0	0	1	1	1	0	0	0	0	0	150	0	0	22	23	15	17
1.41	0.22	-41.81	3	0.003	0.0	-0.009000000000000001	17	0.0	-0.0023168	0	0	0	0	0.23900000000000002	-0.133	-9.329	0.68	-32640	0.0	0.0	0.0	0.0	4.0	4.03	4.08	4.1	4.12	4.14	0.0	0.0	0.0	24.0	23.400000000000002	24.0	1	1	7.0	4.23	4.13	3.98	24.79	1	1	1	1	1	1	0	0	1	1	1	0	0	0	0	0	150	0	0	22	23	15	17
1.42	0.22	-41.81	3	0.001	0.0	-0.01	17	0.0	-0.0023168	0	0	0	0	0.229	-0.074	-9.361	0.6900000000000001	128	0.0	0.0	0.0	0.0	4.0200000000000005	4.01	4.11	4.16	4.19	4.14	0.0	0.0	0.0	23.900000000000002	23.400000000000002	24.0	1	1	7.0	4.19	4.08	3.98	24.5	1	1	1	1	1	1	0	0	1	1	1	0	0	0	0	0	150	0	0	22	23	15	17
1.41	0.22	-41.82	2	0.0	0.0	-0.011	17	0.0	-0.0017599999999999998	0	0	0	0	0.154	-0.055	-9.294	0.68	-32640	0.0	0.0	0.0	0.0	4.04	4.0200000000000005	4.15	4.19	4.23	4.23	0.0	0.0	0.0	23.900000000000002	23.5	24.0	1	1	7.0	4.2	4.1	4.0200000000000005	24.650000000000002	1	1	1	1	1	1	0	0	1	1	1	0	0	0	0	0	150	0	0	22	23	15	17
1.41	0.22	-41.82	2	0.0	-0.001	-0.01	17	0.0	-0.0023168	0	0	0	0	0.203	-0.045	-9.369	0.66	-32640	0.0	0.0	0.0	0.0	4.0	4.04	4.09	4.16	4.19	4.15	0.0	0.0	0.0	23.900000000000002	23.400000000000002	24.0	1	1	7.0	4.18	4.1	4.0	24.61	1	1	1	1	1	1	0	0	1	1	1	0	0	0	0	0	150	0	0	22	23	17	17
1.42	0.22	-41.84	2	-0.001	-0.002	-0.011	17	0.0	-0.0023168	0	0	0	0	0.305	-0.059000000000000004	-9.370000000000001	0.6900000000000001	-32640	0.0	0.0	0.0	0.0	4.0	4.01	4.0600000000000005	4.09	4.14	4.16	0.0	0.0	0.0	23.900000000000002	23.5	24.0	1	1	7.0	4.21	4.1	3.99	24.63	1	1	1	1	1	1	0	0	1	1	1	0	0	0	0	0	150	0	0	22	23	17	17
1.42	0.21	-41.85	2	0.0	0.0	-0.01	17	0.0	-0.0023168	0	0	0	0	0.314	-0.088	-9.274000000000001	0.67	128	0.0	0.0	0.0	0.0	4.0	3.99	4.12	4.13	4.12	4.13	0.0	0.0	0.0	23.900000000000002	23.400000000000002	24.0	1	1	7.0	4.2	4.11	4.0	24.69	1	1	1	1	1	1	0	0	1	1	1	0	0	0	0	0	150	0	0	22	23	17	17
1.41	0.21	-41.85	3	0.0	0.0	-0.008	17	0.0	-0.00031999999999999997	0	0	0	0	0.201	-0.05	-9.325000000000001	0.67	128	0.0	0.0	0.0	0.0	3.99	3.99	4.09	4.1	4.12	4.14	0.0	0.0	0.0	24.0	23.400000000000002	24.0	1	1	7.0	4.21	4.11	3.99	24.66	1	1	1	1	1	1	0	0	1	1	1	0	0	0	0	0	150	0	0	22	23	17	17
1.4000000000000001	0.21	-41.85	3	0.002	-0.001	-0.009000000000000001	17	0.0	-0.0017599999999999998	0	0	0	0	0.22	-0.04	-9.329	0.66	128	0.0	0.0	0.0	0.0	4.0	4.01	4.08	4.12	4.15	4.1	0.0	0.0	0.0	23.900000000000002	23.400000000000002	24.0	1	1	7.0	4.14	4.07	4.0	24.46	1	1	1	1	1	1	0	0	1	1	1	0	0	0	0	0	150	0	0	22	23	16	17
1.41	0.22	-41.86	3	0.002	-0.002	-0.009000000000000001	17	0.0	-0.0017599999999999998	0	0	0	0	0.249	-0.035	-9.376	0.7000000000000001	-32640	0.0	0.0	0.0	0.0	4.0	3.99	4.09	4.09	4.15	4.14	0.0	0.0	0.0	23.900000000000002	23.400000000000002	24.0	1	1	7.0	4.2	4.1	3.97	24.6	1	1	1	1	1	1	0	0	1	1	1	0	0	0	0	0	150	0	0	22	23	16	17
1.42	0.22	-41.86	3	0.001	-0.002	-0.009000000000000001	17	0.0	-0.0023168	0	0	0	0	0.265	-0.037	-9.324	0.6900000000000001	-32640	0.0	0.0	0.0	0.0	4.01	4.0	4.11	4.12	4.2	4.19	0.0	0.0	0.0	24.0	23.5	24.0	1	1	7.0	4.18	4.09	4.01	24.57	1	1	1	1	1	1	0	0	1	1	1	0	0	0	0	0	150	0	0	22	23	16	17
1.42	0.22	-41.87	3	-0.002	0.0	-0.008	17	0.0	-0.00031999999999999997	0	0	0	0	0.221	-0.053	-9.287	0.7000000000000001	-32640	0.0	0.0	0.0	0.0	4.01	3.99	4.1	4.14	4.2	4.16	0.0	0.0	0.0	23.900000000000002	23.5	24.0	1	1	7.0	4.13	4.08	4.01	24.48	1	1	1	1	1	1	0	0	1	1	1	0	0	0	0	0	150	0	0	22	23	16	17
1.41	0.22	-41.87	2	0.0	0.0	-0.011	17	0.0	0.0007936	0	0	0	0	0.22	-0.061	-9.325000000000001	0.68	128	0.0	0.0	0.0	0.0	4.0200000000000005	4.0	4.17	4.2	4.19	4.15	0.0	0.0	0.0	23.900000000000002	23.400000000000002	24.0	1	1	7.0	4.2	4.11	4.0	24.68	1	1	1	1	1	1	0	0	1	1	1	0	0	0	0	0	150	0	0	22	23	16	17
1.41	0.21	-41.88	2	0.0	0.0	-0.01	17	0.0	0.0016895999999999999	0	0	0	0	0.243	-0.043000000000000003	-9.35	0.67	128	0.0	0.0	0.0	0.0	4.01	4.04	4.0600000000000005	4.13	4.21	4.23	0.0	0.0	0.0	23.900000000000002	23.5	24.0	1	1	7.0	4.14	4.09	4.01	24.55	1	1	1	1	1	1	0	0	1	1	1	0	0	0	0	0	150	0	0	22	23	16	17
1.41	0.21	-41.88	2	0.001	-0.002	-0.01	17	0.0	0.0015743999999999999	0	0	0	0	0.209	-0.059000000000000004	-9.308	0.67	-32640	0.0	0.0	0.0	0.0	4.0600000000000005	4.04	4.07	4.14	4.17	4.17	0.0	0.0	0.0	23.900000000000002	23.5	24.0	1	1	7.0	4.16	4.09	4.0	24.560000000000002	1	1	1	1	1	1	0	0	1	1	1	0	0	0	0	0	150	0	0	22	23	16	17
1.41	0.21	-41.89	2	0.0	0.0	-0.009000000000000001	17	0.0	0.0016895999999999999	0	0	0	0	0.217	-0.02	-9.317	0.67	-32640	0.0	0.0	0.0	0.0	4.0	3.99	4.09	4.14	4.15	4.16	0.0	0.0	0.0	23.900000000000002	23.400000000000002	24.0	1	1	7.0	4.15	4.09	3.99	24.54	1	1	1	1	1	1	0	0	1	1	1	0	0	0	0	0	150	0	0	22	23	16	17
1.41	0.22	-41.9	2	0.002	0.0	-0.011	17	0.0	0.00224	0	0	0	0	0.241	-0.021	-9.336	0.71	128	0.0	0.0	0.0	0.0	4.04	4.01	4.1	4.17	4.2	4.18	0.0	0.0	0.0	23.900000000000002	23.400000000000002	24.0	1	1	7.0	4.14	4.09	4.03	24.54	1	1	1	1	1	1	0	0	1	1	1	0	0	0	0	0	150	0	0	22	23	16	17
1.41	0.22	-41.9	1	0.0	0.0	-0.01	17	0.0	0.0016895999999999999	0	0	0	0	0.258	-0.018000000000000002	-9.322000000000001	0.67	128	0.0	0.0	0.0	0.0	4.03	4.0200000000000005	4.09	4.14	4.16	4.16	0.0	0.0	0.0	23.900000000000002	23.400000000000002	24.0	1	1	7.0	4.13	4.0600000000000005	3.98	24.400000000000002	1	1	1	1	1	1	0	0	1	1	1	0	0	0	0	0	150	0	0	22	23	16	17
1.41	0.22	-41.9	1	0.0	0.0	-0.011	17	0.0	0.0006848	0	0	0	0	0.20400000000000001	-0.018000000000000002	-9.328	0.7000000000000001	128	0.0	0.0	0.0	0.0	4.04	4.0	4.11	4.13	4.2	4.2	0.0	0.0	0.0	23.900000000000002	23.400000000000002	24.0	1	1	7.0	4.14	4.08	4.01	24.51	1	1	1	1	1	1	0	0	1	1	1	0	0	0	0	0	150	0	0	22	23	16	17
1.41	0.22	-41.910000000000004	1	0.0	0.001	-0.01	17	0.0	0.0027968	0	0	0	0	0.158	-0.044	-9.328	0.6900000000000001	-32640	0.0	0.0	0.0	0.0	4.0	4.01	4.1	4.11	4.16	4.18	0.0	0.0	0.0	23.900000000000002	23.400000000000002	24.0	1	1	7.0	4.2	4.1	3.99	24.650000000000002	1	1	1	1	1	1	0	0	1	1	1	0	0	0	0	0	150	0	0	22	23	16	17
1.41	0.22	-41.92	1	-0.001	-0.001	-0.011	17	0.0	0.0007936	0	0	0	0	0.229	-0.044	-9.290000000000001	0.6900000000000001	-32640	0.0	0.0	0.0	0.0	4.0	4.0	4.1	4.13	4.14	4.16	0.0	0.0	0.0	23.900000000000002	23.5	24.0	1	1	7.0	4.19	4.11	4.0	24.68	1	1	1	1	1	1	0	0	1	1	1	0	0	0	0	0	150	0	0	22	23	17	17
1.41	0.21	-41.93	1	0.002	0.0	-0.011	17	0.0	0.0016895999999999999	0	0	0	0	0.271	-0.035	-9.341000000000001	0.7000000000000001	-32640	0.0	0.0	0.0	0.0	4.0200000000000005	3.98	4.07	4.11	4.11	4.09	0.0	0.0	0.0	23.900000000000002	23.3	24.0	1	1	8.0	4.18	4.11	4.01	24.66	1	1	1	1	1	1	0	0	1	1	1	0	0	0	0	0	150	0	0	22	23	17	17
1.41	0.22	-41.94	0	0.0	-0.001	-0.011	17	0.0	0.0016895999999999999	0	0	0	0	0.17500000000000002	-0.014	-9.332	0.6900000000000001	128	0.0	0.0	0.0	0.0	4.01	3.99	4.07	4.1	4.14	4.1	0.0	0.0	0.0	23.900000000000002	23.5	24.0	1	1	7.0	4.15	4.08	3.99	24.48	1	1	1	1	1	1	0	0	1	1	1	0	0	0	0	0	150	0	0	22	23	17	17
1.41	0.22	-41.95	2	-0.001	0.001	-0.012	17	0.0	-0.0018687999999999999	0	0	0	0	0.161	-0.04	-9.319	0.66	128	0.0	0.0	0.0	0.0	4.01	3.99	4.05	4.07	4.09	4.07	0.0	0.0	0.0	23.900000000000002	23.5	24.0	1	1	7.0	4.18	4.08	3.98	24.5	1	1	1	1	1	1	0	0	1	1	1	0	0	0	0	0	150	0	0	22	23	17	17
1.41	0.22	-41.95	2	0.0	0.0	-0.011	17	0.0	0.0001344	0	0	0	0	0.227	-0.041	-9.31	0.71	-32640	0.0	0.0	0.0	0.0	4.01	3.98	4.0600000000000005	4.1	4.08	4.07	0.0	0.0	0.0	23.900000000000002	23.400000000000002	24.0	1	1	7.0	4.14	4.0600000000000005	4.0	24.36	1	1	1	1	1	1	0	0	1	1	1	0	0	0	0	0	150	0	0	22	23	16	17
1.41	0.22	-41.96	1	0.002	0.0	-0.011	17	0.0	0.0016895999999999999	0	0	0	0	0.28600000000000003	-0.049	-9.25	0.68	-32640	0.0	0.0	0.0	0.0	4.0	3.98	4.04	4.11	4.09	4.08	0.0	0.0	0.0	23.900000000000002	23.400000000000002	24.0	1	1	7.0	4.15	4.09	4.01	24.580000000000002	1	1	1	1	1	1	0	0	1	1	1	0	0	0	0	0	150	0	0	22	23	16	17
1.41	0.22	-41.96	1	0.0	0.0	-0.011	17	0.0	0.0012416	0	0	0	0	0.276	-0.017	-9.311	0.68	-32640	0.0	0.0	0.0	0.0	4.0	3.99	4.0600000000000005	4.08	4.14	4.09	0.0	0.0	0.0	23.900000000000002	23.400000000000002	24.0	1	1	7.0	4.19	4.1	4.01	24.63	1	1	1	1	1	1	0	0	1	1	1	0	0	0	0	0	150	0	0	22	23	16	17
1.41	0.21	-41.97	1	0.0	0.0	-0.01	17	0.0	0.0006848	0	0	0	0	0.20700000000000002	0.008	-9.326	0.68	128	0.0	0.0	0.0	0.0	4.01	3.98	4.05	4.07	4.08	4.13	0.0	0.0	0.0	23.900000000000002	23.400000000000002	24.0	1	1	7.0	4.13	4.0600000000000005	3.99	24.37	1	1	1	1	1	1	0	0	1	1	1	0	0	0	0	0	150	0	0	22	23	16	17
1.41	0.21	-41.980000000000004	1	-0.001	0.001	-0.012	17	0.0	0.0001344	0	0	0	0	0.166	0.004	-9.314	0.68	-32640	0.0	0.0	0.0	0.0	4.0	4.0	4.05	4.1	4.08	4.0600000000000005	0.0	0.0	0.0	23.900000000000002	23.400000000000002	24.0	1	1	7.0	4.14	4.05	3.98	24.35	1	1	1	1	1	1	0	0	1	1	1	0	0	0	0	0	150	0	0	22	23	17	18
1.41	0.22	-41.980000000000004	1	-0.001	-0.001	-0.012	17	0.0	0.0012416	0	0	0	0	0.20700000000000002	-0.026000000000000002	-9.258000000000001	0.68	-32640	0.0	0.0	0.0	0.0	4.01	3.98	4.07	4.1	4.12	4.1	0.0	0.0	0.0	23.900000000000002	23.400000000000002	24.0	1	1	7.0	4.13	4.05	3.98	24.330000000000002	1	1	1	1	1	1	0	0	1	1	1	0	0	0	0	0	150	0	0	22	23	17	18
1.41	0.22	-41.980000000000004	0	0.0	0.0	-0.012	17	0.0	-0.0017599999999999998	0	0	0	0	0.27	0.023	-9.284	0.67	128	0.0	0.0	0.0	0.0	3.99	3.99	4.07	4.07	4.08	4.09	0.0	0.0	0.0	23.900000000000002	23.400000000000002	24.0	1	1	7.0	4.11	4.05	3.99	24.35	1	1	1	1	1	1	0	0	1	1	1	0	0	0	0	0	150	0	0	22	23	17	18
1.42	0.22	-41.99	1	0.001	0.0	-0.009000000000000001	17	0.0	0.0012416	0	0	0	0	0.167	0.02	-9.362	0.7000000000000001	128	0.0	0.0	0.0	0.0	4.01	3.99	4.08	4.11	4.13	4.13	0.0	0.0	0.0	23.900000000000002	23.400000000000002	24.0	1	1	7.0	4.11	4.0600000000000005	3.99	24.37	1	1	1	1	1	1	0	0	1	1	1	0	0	0	0	0	150	0	0	22	23	17	18
1.42	0.22	-42.0	0	0.001	0.0	-0.011	17	0.0	0.0006848	0	0	0	0	0.176	-0.03	-9.323	0.7000000000000001	128	0.0	0.0	0.0	0.0	4.0	4.01	4.05	4.12	4.14	4.14	0.0	0.0	0.0	23.900000000000002	23.3	24.0	1	1	7.0	4.09	4.04	3.99	24.27	1	1	1	1	1	1	0	0	1	1	1	0	0	0	0	0	150	0	0	22	23	14	17
1.41	0.21	-42.0	0	0.001	0.0	-0.012	17	0.0	0.0006848	0	0	0	0	0.221	-0.053	-9.336	0.67	-32640	0.0	0.0	0.0	0.0	4.01	4.0	4.0600000000000005	4.1	4.16	4.13	0.0	0.0	0.0	23.900000000000002	23.400000000000002	24.0	1	1	7.0	4.1	4.05	4.0	24.32	1	1	1	1	1	1	0	0	1	1	1	0	0	0	0	0	150	0	0	22	23	14	17
1.42	0.22	-42.01	0	-0.001	0.001	-0.013000000000000001	17	0.0	-0.0013184	0	0	0	0	0.215	-0.028	-9.295	0.67	128	0.0	0.0	0.0	0.0	4.01	3.99	4.08	4.09	4.11	4.14	0.0	0.0	0.0	24.0	23.400000000000002	24.0	1	1	7.0	4.1	4.04	4.0	24.29	1	1	1	1	1	1	0	0	1	1	1	0	0	0	0	0	150	0	0	22	23	14	17
1.42	0.22	-42.01	0	0.0	-0.001	-0.01	17	0.0	0.0006848	0	0	0	0	0.193	0.047	-9.309000000000001	0.7000000000000001	128	0.0	0.0	0.0	0.0	4.0200000000000005	3.98	4.11	4.15	4.14	4.12	0.0	0.0	0.0	23.900000000000002	23.400000000000002	24.0	1	1	8.0	4.1	4.05	4.0	24.310000000000002	1	1	1	1	1	1	0	0	1	1	1	0	0	0	0	0	150	0	0	22	23	14	17
1.42	0.22	-42.02	0	-0.001	0.0	-0.01	17	0.0	0.0001344	0	0	0	0	0.185	0.054	-9.324	0.68	-32640	0.0	0.0	0.0	0.0	4.01	3.99	4.09	4.13	4.16	4.15	0.0	0.0	0.0	24.0	23.400000000000002	24.0	1	1	7.0	4.1	4.0600000000000005	3.99	24.36	1	1	1	1	1	1	0	0	1	1	1	0	0	0	0	0	150	0	0	22	23	16	17
1.41	0.22	-42.02	0	0.0	0.001	-0.011	17	0.0	0.0032384	0	0	0	0	0.198	0.004	-9.354000000000001	0.6900000000000001	-32640	0.0	0.0	0.0	0.0	4.0	4.0	4.1	4.16	4.11	4.11	0.0	0.0	0.0	23.900000000000002	23.400000000000002	24.0	1	1	7.0	4.19	4.08	3.98	24.5	1	1	1	1	1	1	0	0	1	1	1	0	0	0	0	0	150	0	0	22	23	16	17
1.42	0.22	-42.03	0	0.001	0.0	-0.013000000000000001	17	0.0	0.0001344	0	0	0	0	0.20800000000000002	-0.051000000000000004	-9.317	0.68	-32640	0.0	0.0	0.0	0.0	4.01	4.0	4.0600000000000005	4.07	4.13	4.09	0.0	0.0	0.0	23.900000000000002	23.400000000000002	24.0	1	1	7.0	4.15	4.08	4.0	24.52	1	1	1	1	1	1	0	0	1	1	1	0	0	0	0	0	150	0	0	22	23	16	17
1.42	0.22	-42.03	0	0.001	0.0	-0.011	17	0.0	0.0032384	0	0	0	0	0.23600000000000002	-0.061	-9.33	0.67	128	0.0	0.0	0.0	0.0	4.0	4.0	4.04	4.07	4.1	4.08	0.0	0.0	0.0	23.900000000000002	23.400000000000002	24.0	1	1	8.0	4.12	4.07	4.0	24.42	1	1	1	1	1	1	0	0	1	1	1	0	0	0	0	0	150	0	0	22	23	16	17
1.42	0.22	-42.050000000000004	0	-0.001	0.0	-0.012	17	0.0	0.0012416	0	0	0	0	0.189	-0.004	-9.348	0.68	128	0.0	0.0	0.0	0.0	4.01	3.98	4.0200000000000005	4.0600000000000005	4.07	4.05	0.0	0.0	0.0	23.900000000000002	23.400000000000002	24.0	1	1	7.0	4.12	4.05	3.98	24.310000000000002	1	1	1	1	1	1	0	0	1	1	1	0	0	0	0	0	150	0	0	22	23	17	16
1.41	0.21	-42.050000000000004	0	-0.001	0.001	-0.011	17	0.0	-0.0013184	0	0	0	0	0.209	-0.003	-9.329	0.7000000000000001	128	0.0	0.0	0.0	0.0	3.99	3.98	4.0200000000000005	4.0600000000000005	4.07	4.04	0.0	0.0	0.0	23.900000000000002	23.400000000000002	24.0	1	1	7.0	4.09	4.04	3.98	24.28	1	1	1	1	1	1	0	0	1	1	1	0	0	0	0	0	150	0	0	22	23	17	16
1.41	0.21	-42.06	0	-0.001	0.001	-0.012	17	0.0	-0.00021119999999999998	0	0	0	0	0.225	0.006	-9.361	0.68	-32640	0.0	0.0	0.0	0.0	4.0200000000000005	3.98	4.04	4.08	4.1	4.11	0.0	0.0	0.0	23.900000000000002	23.3	24.0	1	1	7.0	4.1	4.03	3.98	24.23	1	1	1	1	1	1	0	0	1	1	1	0	0	0	0	0	150	0	0	22	23	17	16
1.42	0.23	-42.07	0	0.001	0.001	-0.013000000000000001	17	0.0	0.0006848	0	0	0	0	0.20500000000000002	-0.036000000000000004	-9.325000000000001	0.68	-32640	0.0	0.0	0.0	0.0	3.99	3.99	4.05	4.05	4.07	4.0200000000000005	0.0	0.0	0.0	23.900000000000002	23.400000000000002	24.0	1	1	7.0	4.0600000000000005	4.03	3.99	24.22	1	1	1	1	1	1	0	0	1	1	1	0	0	0	0	0	150	0	0	22	23	17	16
1.42	0.23	-42.08	0	0.002	0.0	-0.01	17	0.0	-0.0013184	0	0	0	0	0.225	0.027	-9.273	0.7000000000000001	128	0.0	0.0	0.0	0.0	4.0	3.98	4.01	4.09	4.11	4.05	0.0	0.0	0.0	23.900000000000002	23.400000000000002	24.0	1	1	7.0	4.08	4.03	3.98	24.22	1	1	1	1	1	1	0	0	1	1	1	0	0	0	0	0	150	0	0	22	23	18	17
1.42	0.22	-42.08	0	0.002	0.0	-0.009000000000000001	17	0.0	0.0012416	0	0	0	0	0.248	-0.004	-9.344	0.68	128	0.0	0.0	0.0	0.0	4.0	3.98	4.05	4.05	4.08	4.05	0.0	0.0	0.0	23.900000000000002	23.400000000000002	24.0	1	1	7.0	4.08	4.03	4.0	24.22	1	1	1	1	1	1	0	0	1	1	1	0	0	0	0	0	150	0	0	22	23	18	17
1.42	0.22	-42.09	0	0.0	0.0	-0.012	17	0.0	0.0032384	0	0	0	0	0.229	-0.011	-9.378	0.66	128	0.0	0.0	0.0	0.0	4.01	3.98	4.04	4.04	4.1	4.05	0.0	0.0	0.0	23.900000000000002	23.400000000000002	24.0	1	1	7.0	4.07	4.0200000000000005	3.97	24.150000000000002	1	1	1	1	1	1	0	0	1	1	1	0	0	0	0	0	150	0	0	22	23	18	17
1.41	0.22	-42.09	0	0.0	0.001	-0.013000000000000001	17	0.0	0.0032384	0	0	0	0	0.194	-0.027	-9.370000000000001	0.68	-32640	0.0	0.0	0.0	0.0	4.01	3.98	4.03	4.04	4.0600000000000005	4.05	0.0	0.0	0.0	23.900000000000002	23.400000000000002	24.0	1	1	7.0	4.05	4.0200000000000005	3.98	24.13	1	1	1	1	1	1	0	0	1	1	1	0	0	0	0	0	150	0	0	22	23	18	17
1.41	0.22	-42.1	0	-0.002	0.0	-0.011	17	0.0	-0.0013184	0	0	0	0	0.21	0.014	-9.355	0.68	-32640	0.0	0.0	0.0	0.0	4.0	4.0200000000000005	4.04	4.03	4.04	4.04	0.0	0.0	0.0	23.900000000000002	23.3	24.0	1	1	7.0	4.08	4.03	3.98	24.23	1	1	1	1	1	1	0	0	1	1	1	0	0	0	0	0	150	0	0	22	23	20	18
1.41	0.22	-42.1	0	0.0	0.002	-0.01	17	0.0	-0.0007616	0	0	0	0	0.258	0.022	-9.292	0.6900000000000001	128	0.0	0.0	0.0	0.0	4.0	3.99	4.04	4.05	4.04	4.04	0.0	0.0	0.0	23.900000000000002	23.400000000000002	24.0	1	1	7.0	4.07	4.0200000000000005	3.98	24.17	1	1	1	1	1	1	0	0	1	1	1	0	0	0	0	0	150	0	0	22	23	20	18
1.42	0.22	-42.1	0	0.001	0.0	-0.012	17	0.0	0.0012416	0	0	0	0	0.18	-0.031	-9.335	0.7000000000000001	128	0.0	0.0	0.0	0.0	4.0	3.98	4.03	4.05	4.05	4.0200000000000005	0.0	0.0	0.0	23.900000000000002	23.400000000000002	24.0	1	1	7.0	4.0600000000000005	4.0200000000000005	3.98	24.150000000000002	1	1	1	1	1	1	0	0	1	1	1	0	0	0	0	0	150	0	0	22	23	20	18
1.42	0.22	-42.11	0	0.001	0.0	-0.012	17	0.0	-0.0013184	0	0	0	0	0.212	-0.069	-9.324	0.68	-32640	0.0	0.0	0.0	0.0	3.99	3.97	4.01	4.03	4.03	4.03	0.0	0.0	0.0	23.900000000000002	23.400000000000002	24.0	1	1	7.0	4.03	4.01	3.98	24.07	1	1	1	1	1	1	0	0	1	1	1	0	0	0	0	0	150	0	0	22	23	20	18
1.42	0.22	-42.11	0	0.0	0.0	-0.012	17	0.0	-0.0018687999999999999	0	0	0	0	0.255	-0.05	-9.338000000000001	0.71	-32640	0.0	0.0	0.0	0.0	4.0	3.97	4.01	4.01	4.04	4.03	0.0	0.0	0.0	23.900000000000002	23.3	24.0	1	1	7.0	4.05	4.01	3.97	24.060000000000002	1	1	1	1	1	1	0	0	1	1	1	0	0	0	0	0	150	0	0	22	23	18	18
1.42	0.23	-42.12	0	-0.001	0.0	-0.012	17	0.0	-0.0018687999999999999	0	0	0	0	0.228	-0.024	-9.369	0.65	-32640	0.0	0.0	0.0	0.0	3.99	3.98	4.0200000000000005	4.01	4.03	4.01	0.0	0.0	0.0	23.900000000000002	23.400000000000002	24.0	1	1	7.0	4.04	4.01	3.99	24.1	1	1	1	1	1	1	0	0	1	1	1	0	0	0	0	0	150	0	0	22	23	18	18
1.41	0.22	-42.13	0	0.0	0.0	-0.012	18	0.0	-0.0013184	0	0	0	0	0.192	-0.001	-9.32	0.7000000000000001	128	0.0	0.0	0.0	0.0	4.0	3.98	3.99	4.01	4.05	4.0200000000000005	0.0	0.0	0.0	23.900000000000002	23.400000000000002	24.0	1	1	7.0	4.03	4.0	3.97	24.05	1	1	1	1	1	1	0	0	1	1	1	0	0	0	0	0	150	0	0	22	23	18	18
1.42	0.22	-42.13	0	0.0	0.001	-0.012	17	0.0	-0.00021119999999999998	0	0	0	0	0.197	-0.006	-9.309000000000001	0.68	128	0.0	0.0	0.0	0.0	3.99	3.99	4.01	4.04	4.04	4.03	0.0	0.0	0.0	23.900000000000002	23.400000000000002	24.0	1	1	7.0	4.0200000000000005	4.0	3.97	24.03	1	1	1	1	1	1	0	0	1	1	1	0	0	0	0	0	150	0	0	22	23	18	18
1.42	0.22	-42.14	0	0.002	-0.001	-0.012	17	0.0	-0.00021119999999999998	0	0	0	0	0.23900000000000002	-0.062	-9.317	0.7000000000000001	128	0.0	0.0	0.0	0.0	3.99	3.97	4.04	4.03	4.04	4.03	0.0	0.0	0.0	23.900000000000002	23.400000000000002	24.0	1	1	7.0	4.05	4.0200000000000005	3.99	24.12	1	1	1	1	1	1	0	0	1	1	1	0	0	0	0	0	150	0	0	22	23	18	17
1.41	0.23	-42.14	0	0.001	0.0	-0.009000000000000001	17	0.0	-0.0013184	0	0	0	0	0.23700000000000002	-0.027	-9.315	0.68	-32640	0.0	0.0	0.0	0.0	4.0	3.98	4.01	4.03	4.03	4.0200000000000005	0.0	0.0	0.0	23.900000000000002	23.400000000000002	24.0	1	1	7.0	4.0600000000000005	4.0200000000000005	4.0	24.150000000000002	1	1	1	1	1	1	0	0	1	1	1	0	0	0	0	0	150	0	0	22	23	18	17
1.41	0.23	-42.15	0	0.0	0.0	-0.011	17	0.0	0.0006848	0	0	0	0	0.216	-0.05	-9.394	0.6900000000000001	-32640	0.0	0.0	0.0	0.0	4.0	3.98	4.0200000000000005	4.03	4.0600000000000005	4.03	0.0	0.0	0.0	23.900000000000002	23.400000000000002	24.0	1	1	7.0	4.08	4.03	3.99	24.19	1	1	1	1	1	1	0	0	1	1	1	0	0	0	0	0	150	0	0	22	23	18	17
1.41	0.23	-42.15	0	0.0	0.0	-0.011	17	0.0	-0.0007616	0	0	0	0	0.257	-0.048	-9.347	0.7000000000000001	-32640	0.0	0.0	0.0	0.0	4.0	3.99	4.03	4.0600000000000005	4.0600000000000005	4.0200000000000005	0.0	0.0	0.0	23.900000000000002	23.400000000000002	24.0	1	1	7.0	4.05	4.01	3.98	24.11	1	1	1	1	1	1	0	0	1	1	1	0	0	0	0	0	150	0	0	22	23	18	17
1.42	0.23	-42.160000000000004	0	0.0	0.0	-0.01	17	0.0	-0.0013184	0	0	0	0	0.25	-0.073	-9.361	0.68	128	0.0	0.0	0.0	0.0	4.0	3.98	4.0200000000000005	4.0600000000000005	4.0600000000000005	4.05	0.0	0.0	0.0	23.900000000000002	23.400000000000002	24.0	1	1	7.0	4.0600000000000005	4.0200000000000005	3.98	24.16	1	1	1	1	1	1	0	0	1	1	1	0	0	0	0	0	150	0	0	22	23	16	17
1.42	0.22	-42.160000000000004	0	-0.002	0.0	-0.01	17	0.0	-0.0007616	0	0	0	0	0.227	-0.037	-9.367	0.6900000000000001	128	0.0	0.0	0.0	0.0	3.99	3.98	4.05	4.09	4.09	4.05	0.0	0.0	0.0	23.900000000000002	23.400000000000002	24.0	1	1	7.0	4.05	4.0200000000000005	3.98	24.14	1	1	1	0	1	1	0	0	1	1	1	0	0	0	0	0	150	0	0	22	23	16	17
1.42	0.22	-42.17	0	0.001	0.0	-0.011	17	0.0	0.002688	0	0	0	0	0.264	-0.03	-9.323	0.6900000000000001	-32640	0.0	0.0	0.0	0.0	4.01	4.01	4.08	4.08	4.09	4.11	0.0	0.0	0.0	23.900000000000002	23.400000000000002	24.0	1	1	7.0	4.08	4.03	3.98	24.23	1	1	1	1	1	1	0	0	1	1	1	0	0	0	0	0	150	0	0	22	23	16	17
1.41	0.22	-42.17	0	0.0	0.0	-0.012	17	0.0	0.0017984	0	0	0	0	0.243	-0.055	-9.339	0.6900000000000001	-32640	0.0	0.0	0.0	0.0	4.0	3.99	4.0600000000000005	4.05	4.12	4.0600000000000005	0.0	0.0	0.0	23.900000000000002	23.400000000000002	24.0	1	1	7.0	4.11	4.05	3.98	24.34	1	1	1	1	1	1	0	0	1	1	1	0	0	0	0	0	150	0	0	22	23	16	17
1.41	0.23	-42.18	0	0.001	0.0	-0.01	17	0.0	-0.00021119999999999998	0	0	0	0	0.29	-0.078	-9.36	0.6900000000000001	-32640	0.0	0.0	0.0	0.0	4.0	3.98	4.05	4.11	4.12	4.0600000000000005	0.0	0.0	0.0	23.900000000000002	23.3	24.0	1	1	7.0	4.1	4.05	3.99	24.3	1	1	1	1	1	1	0	0	1	1	1	0	0	0	0	0	150	0	0	22	23	15	17
1.41	0.23	-42.19	0	0.002	0.001	-0.011	17	0.0	0.002688	0	0	0	0	0.3	-0.079	-9.333	0.6900000000000001	128	0.0	0.0	0.0	0.0	3.99	3.97	4.08	4.05	4.11	4.0600000000000005	0.0	0.0	0.0	23.900000000000002	23.400000000000002	24.0	1	1	7.0	4.13	4.05	3.98	24.34	1	1	1	1	1	1	0	0	1	1	1	0	0	0	0	0	150	0	0	22	23	15	17
1.41	0.23	-42.19	0	0.0	0.0	-0.009000000000000001	17	0.0	0.0017984	0	0	0	0	0.23700000000000002	-0.108	-9.348	0.6900000000000001	128	0.0	0.0	0.0	0.0	4.0	3.98	4.04	4.07	4.1	4.0600000000000005	0.0	0.0	0.0	23.900000000000002	23.400000000000002	24.0	1	1	7.0	4.07	4.03	3.99	24.2	1	1	1	1	1	1	0	0	1	1	1	0	0	0	0	0	150	0	0	22	23	15	17
1.42	0.23	-42.2	0	0.0	0.001	-0.011	17	0.0	0.002688	0	0	0	0	0.209	-0.062	-9.389	0.68	-32640	0.0	0.0	0.0	0.0	4.0	3.99	4.03	4.07	4.1	4.0600000000000005	0.0	0.0	0.0	23.900000000000002	23.400000000000002	24.0	1	1	7.0	4.12	4.04	3.98	24.28	1	1	1	1	1	1	0	0	1	1	1	0	0	0	0	0	150	0	0	22	23	15	17
1.42	0.22	-42.2	0	0.0	0.0	-0.009000000000000001	17	0.0	0.0032384	0	0	0	0	0.281	-0.089	-9.367	0.66	-32640	0.0	0.0	0.0	0.0	4.0	3.99	4.05	4.07	4.0600000000000005	4.04	0.0	0.0	0.0	23.900000000000002	23.400000000000002	24.0	1	1	7.0	4.07	4.03	3.99	24.22	1	1	1	0	1	1	0	0	1	1	1	0	0	0	0	0	150	0	0	22	23	16	17
1.42	0.22	-42.21	0	0.001	0.0	-0.01	17	0.0	-0.0007616	0	0	0	0	0.276	-0.112	-9.323	0.6900000000000001	128	0.0	0.0	0.0	0.0	4.0	3.98	4.05	4.04	4.0600000000000005	4.07	0.0	0.0	0.0	24.0	23.400000000000002	24.0	1	1	7.0	4.07	4.03	3.98	24.21	1	1	1	1	1	1	0	0	1	1	1	0	0	0	0	0	150	0	0	22	23	16	17
1.42	0.22	-42.21	0	0.002	-0.001	-0.01	17	0.0	-0.002208	0	0	0	0	0.259	-0.079	-9.363	0.68	128	0.0	0.0	0.0	0.0	3.99	3.99	4.0200000000000005	4.0600000000000005	4.09	4.03	0.0	0.0	0.0	23.900000000000002	23.3	24.0	1	1	7.0	4.09	4.04	4.0	24.26	1	1	1	1	1	1	0	0	1	1	1	0	0	0	0	0	150	0	0	22	23	16	17
1.41	0.22	-42.22	0	0.0	-0.001	-0.009000000000000001	17	0.0	0.0032384	0	0	0	0	0.249	-0.048	-9.34	0.6900000000000001	-32640	0.0	0.0	0.0	0.0	4.0	3.99	4.0200000000000005	4.07	4.11	4.05	0.0	0.0	0.0	23.900000000000002	23.400000000000002	24.0	1	1	7.0	4.11	4.05	3.98	24.330000000000002	1	1	1	1	1	1	0	0	1	1	1	0	0	0	0	0	150	0	0	22	23	16	17
1.42	0.23	-42.230000000000004	0	0.002	0.0	-0.007	17	0.0	-0.0027584	0	0	0	0	0.266	-0.078	-9.332	0.71	-32640	0.0	0.0	0.0	0.0	4.0	4.0	4.05	4.0600000000000005	4.09	4.04	0.0	0.0	0.0	23.900000000000002	23.400000000000002	24.0	1	1	7.0	4.08	4.03	3.97	24.18	1	1	1	1	1	1	0	0	1	1	1	3	0	3	0	0	150	0	0	22	23	16	17
1.42	0.23	-42.230000000000004	0	0.001	0.0	-0.009000000000000001	17	0.0	-0.0027584	0	0	0	0	0.281	-0.057	-9.335	0.7000000000000001	128	0.0	0.0	0.0	0.0	4.0	3.97	4.05	4.04	4.1	4.05	0.0	0.0	0.0	23.900000000000002	23.400000000000002	24.0	1	1	7.0	4.0600000000000005	4.03	3.99	24.23	1	1	1	1	1	1	0	0	1	1	1	5	0	7	0	0	150	0	0	22	23	16	17
1.42	0.22	-42.25	0	-0.001	0.0	-0.011	17	0.0	0.002688	0	0	0	0	0.249	-0.089	-9.326	0.68	128	0.0	0.0	0.0	0.0	4.0	3.99	4.04	4.04	4.09	4.0600000000000005	0.0	0.0	0.0	23.900000000000002	23.400000000000002	24.0	1	1	7.0	4.11	4.05	3.99	24.310000000000002	1	1	1	1	1	1	0	0	1	1	1	8	0	14	0	1	150	0	0	22	23	16	17
1.42	0.22	-42.25	0	0.0	-0.001	-0.01	17	0.0	-0.0027584	0	0	0	0	0.23700000000000002	-0.046	-9.308	0.7000000000000001	128	0.0	0.0	0.0	0.0	4.0	3.98	4.04	4.07	4.08	4.03	0.0	0.0	0.0	23.900000000000002	23.3	24.0	1	1	7.0	4.11	4.05	3.98	24.3	1	1	1	1	1	1	0	0	1	1	1	13	0	19	0	1	150	0	0	22	23	16	17
1.42	0.23	-42.26	0	0.0	0.0	-0.009000000000000001	17	0.0	0.0032384	0	0	0	0	0.26	-0.051000000000000004	-9.386000000000001	0.6900000000000001	-32640	0.0	0.0	0.0	0.0	3.99	3.98	4.04	4.08	4.08	4.04	0.0	0.0	0.0	23.900000000000002	23.3	24.0	1	1	7.0	4.07	4.03	3.99	24.18	1	1	1	1	1	1	0	0	1	1	1	19	0	25	0	1	150	0	0	22	23	19	18
1.42	0.23	-42.26	0	0.0	0.001	-0.008	17	0.0	0.0032384	0	0	0	0	0.247	-0.074	-9.353	0.6900000000000001	-32640	0.0	0.0	0.0	0.0	4.01	3.99	4.05	4.0600000000000005	4.0600000000000005	4.05	0.0	0.0	0.0	23.900000000000002	23.400000000000002	24.0	1	1	7.0	4.0600000000000005	4.0200000000000005	3.98	24.13	1	1	1	1	1	1	0	0	1	1	1	21	0	28	0	2	150	0	0	22	23	19	18
1.42	0.23	-42.27	0	0.001	-0.001	-0.009000000000000001	17	0.0	0.0032384	0	0	0	0	0.23700000000000002	-0.128	-9.357	0.67	-32640	0.0	0.0	0.0	0.0	3.99	3.98	4.0200000000000005	4.07	4.1	4.05	0.0	0.0	0.0	24.0	23.400000000000002	24.0	1	1	7.0	4.08	4.03	3.99	24.21	1	1	1	1	1	1	0	0	1	1	1	22	0	31	0	2	150	0	0	22	23	19	18
1.42	0.23	-42.27	0	0.003	-0.001	-0.009000000000000001	17	0.0	0.0032384	0	0	0	0	0.233	-0.105	-9.292	0.7000000000000001	128	0.0	0.0	0.0	0.0	4.0	3.98	4.05	4.0600000000000005	4.09	4.04	0.0	0.0	0.0	23.900000000000002	23.400000000000002	24.0	1	1	7.0	4.07	4.04	4.0	24.25	1	1	1	1	1	1	0	0	1	1	1	21	0	32	0	2	150	0	0	22	23	19	18
1.42	0.23	-42.28	0	0.001	-0.001	-0.008	17	0.0	0.0006848	0	0	0	0	0.28500000000000003	-0.076	-9.355	0.6900000000000001	128	0.0	0.0	0.0	0.0	4.0	3.98	4.0200000000000005	4.07	4.07	4.05	0.0	0.0	0.0	23.900000000000002	23.400000000000002	24.0	1	1	7.0	4.0600000000000005	4.0200000000000005	3.99	24.17	1	1	1	1	1	1	0	0	1	1	1	18	0	28	0	2	150	0	0	22	23	16	17
1.42	0.23	-42.28	0	0.0	-0.002	-0.01	17	0.0	0.0012416	0	0	0	0	0.28	-0.051000000000000004	-9.334	0.68	-32640	0.0	0.0	0.0	0.0	4.0	3.99	4.05	4.0600000000000005	4.05	4.07	0.0	0.0	0.0	23.900000000000002	23.400000000000002	24.0	1	1	7.0	4.0600000000000005	4.03	3.99	24.2	1	1	1	1	1	1	0	0	1	1	1	17	0	26	0	1	150	0	0	22	23	16	17
1.42	0.23	-42.28	0	0.0	0.0	-0.009000000000000001	17	0.0	-0.0007616	0	0	0	0	0.26	-0.031	-9.329	0.68	-32640	0.0	0.0	0.0	0.0	4.0	3.98	4.03	4.05	4.09	4.09	0.0	0.0	0.0	23.900000000000002	23.3	24.0	1	1	7.0	4.0600000000000005	4.03	3.99	24.18	1	1	1	1	1	1	0	0	1	1	1	16	0	23	0	1	150	0	0	22	23	16	17
1.42	0.23	-42.29	0	-0.001	0.0	-0.01	17	0.0	-0.0007616	0	0	0	0	0.246	-0.07200000000000001	-9.366	0.7000000000000001	-32640	0.0	0.0	0.0	0.0	4.0	3.98	4.0200000000000005	4.05	4.0600000000000005	4.04	0.0	0.0	0.0	23.900000000000002	23.400000000000002	24.0	1	1	8.0	4.09	4.03	3.98	24.2	1	1	1	1	1	1	0	0	1	1	1	14	0	21	0	1	150	0	0	22	23	16	17
1.42	0.23	-42.300000000000004	0	0.0	-0.001	-0.009000000000000001	17	0.0	0.0032384	0	0	0	0	0.24	-0.052000000000000005	-9.368	0.7000000000000001	-32640	0.0	0.0	0.0	0.0	3.99	3.98	4.0200000000000005	4.05	4.08	4.04	0.0	0.0	0.0	23.900000000000002	23.3	24.0	1	1	7.0	4.0600000000000005	4.0200000000000005	3.98	24.17	1	1	1	1	1	1	0	0	1	1	1	8	0	16	0	1	150	0	0	22	23	14	17
1.42	0.23	-42.300000000000004	0	0.001	0.0	-0.008	17	0.0	0.0012416	0	0	0	0	0.264	-0.06	-9.329	0.67	128	0.0	0.0	0.0	0.0	4.0	3.99	4.03	4.0600000000000005	4.07	4.0600000000000005	0.0	0.0	0.0	23.900000000000002	23.400000000000002	24.0	1	1	7.0	4.0600000000000005	4.0200000000000005	3.98	24.150000000000002	1	1	1	1	1	1	0	0	1	1	1	6	0	12	0	0	150	0	0	22	23	14	17
1.42	0.23	-42.300000000000004	0	0.003	-0.001	-0.009000000000000001	17	0.0	0.0032384	0	0	0	0	0.309	-0.08600000000000001	-9.359	0.67	128	0.0	0.0	0.0	0.0	3.99	4.0	4.05	4.05	4.0600000000000005	4.0600000000000005	0.0	0.0	0.0	24.0	23.400000000000002	24.0	1	1	7.0	4.05	4.03	3.98	24.19	1	1	1	1	1	1	0	0	1	1	1	5	0	9	0	0	150	0	0	22	23	14	17
1.42	0.23	-42.31	0	0.001	0.0	-0.008	17	0.0	0.0012416	0	0	0	0	0.279	-0.048	-9.302	0.7000000000000001	-32640	0.0	0.0	0.0	0.0	4.0	3.98	4.03	4.05	4.08	4.0600000000000005	0.0	0.0	0.0	23.900000000000002	23.400000000000002	24.0	1	1	7.0	4.0600000000000005	4.0200000000000005	3.97	24.150000000000002	1	1	1	1	1	1	0	0	1	1	1	0	0	6	0	0	150	0	0	22	23	14	17
1.42	0.23	-42.31	0	0.0	-0.002	-0.009000000000000001	17	0.0	0.0006848	0	0	0	0	0.221	-0.02	-9.318	0.68	-32640	0.0	0.0	0.0	0.0	3.99	3.98	4.05	4.0600000000000005	4.0600000000000005	4.03	0.0	0.0	0.0	23.900000000000002	23.400000000000002	24.0	1	1	7.0	4.07	4.0200000000000005	3.99	24.17	1	1	1	1	1	1	0	0	1	1	1	0	0	5	0	0	150	0	0	22	23	16	17
1.42	0.23	-42.32	0	0.0	0.0	-0.008	17	0.0	0.0032384	0	0	0	0	0.26	-0.047	-9.347	0.6900000000000001	-32640	0.0	0.0	0.0	0.0	4.0	3.99	4.03	4.03	4.07	4.03	0.0	0.0	0.0	23.900000000000002	23.3	24.0	1	1	7.0	4.07	4.0200000000000005	3.98	24.16	1	1	1	1	1	1	0	0	1	1	1	0	0	0	0	0	150	0	0	22	23	16	17
1.42	0.22	-42.32	0	0.001	0.0	-0.01	17	0.0	0.0023423999999999997	0	0	0	0	0.243	-0.049	-9.329	0.6900000000000001	128	0.0	0.0	0.0	0.0	3.99	3.98	4.03	4.0600000000000005	4.0600000000000005	4.04	0.0	0.0	0.0	23.900000000000002	23.400000000000002	24.0	1	1	7.0	4.09	4.03	3.98	24.23	1	1	1	1	1	1	0	0	1	1	1	0	0	0	0	0	150	0	0	22	23	16	17
1.42	0.23	-42.32	0	0.0	0.001	-0.009000000000000001	17	0.0	0.0012416	0	0	0	0	0.248	-0.018000000000000002	-9.331	0.6900000000000001	128	0.0	0.0	0.0	0.0	4.0	3.99	4.03	4.07	4.08	4.07	0.0	0.0	0.0	23.900000000000002	23.3	24.0	1	1	7.0	4.07	4.0200000000000005	3.97	24.13	1	1	1	1	1	1	0	0	1	1	1	0	0	0	0	0	150	0	0	22	23	16	17
1.42	0.23	-42.33	0	0.0	0.0	-0.009000000000000001	17	0.0	0.0012416	0	0	0	0	0.251	-0.031	-9.32	0.67	128	0.0	0.0	0.0	0.0	3.99	4.0	4.03	4.0600000000000005	4.0600000000000005	4.0600000000000005	0.0	0.0	0.0	23.900000000000002	23.3	24.0	1	1	7.0	4.0600000000000005	4.03	3.99	24.21	1	1	1	1	1	1	0	0	1	1	1	0	0	0	0	0	150	0	0	22	23	16	18
1.42	0.23	-42.33	0	0.001	-0.002	-0.007	17	0.0	0.0012416	0	0	0	0	0.23800000000000002	-0.063	-9.335	0.67	-32640	0.0	0.0	0.0	0.0	4.0	3.99	4.05	4.04	4.0600000000000005	4.07	0.0	0.0	0.0	23.900000000000002	23.400000000000002	24.0	1	1	7.0	4.08	4.03	3.99	24.2	1	1	1	1	1	1	0	0	1	1	1	0	0	0	0	0	150	0	0	22	23	16	18
1.42	0.23	-42.34	0	0.001	0.0	-0.01	17	0.0	-0.0027584	0	0	0	0	0.219	-0.07	-9.309000000000001	0.7000000000000001	-32640	0.0	0.0	0.0	0.0	4.01	3.98	4.03	4.04	4.07	4.04	0.0	0.0	0.0	23.900000000000002	23.400000000000002	24.0	1	1	7.0	4.0600000000000005	4.0200000000000005	3.99	24.16	1	1	1	1	1	1	0	0	1	1	1	0	0	0	0	0	150	0	0	22	23	16	18
1.42	0.23	-42.35	0	0.0	-0.001	-0.011	17	0.0	0.0012416	0	0	0	0	0.254	-0.069	-9.298	0.68	128	0.0	0.0	0.0	0.0	4.0	3.98	4.0200000000000005	4.08	4.09	4.04	0.0	0.0	0.0	23.900000000000002	23.3	24.0	1	1	7.0	4.08	4.0200000000000005	3.97	24.150000000000002	1	1	1	1	1	1	0	0	1	1	1	0	0	0	0	0	150	0	0	22	23	16	18
1.42	0.23	-42.35	0	0.0	0.0	-0.009000000000000001	17	0.0	0.0006848	0	0	0	0	0.243	-0.061	-9.34	0.6900000000000001	128	0.0	0.0	0.0	0.0	4.0200000000000005	3.98	4.03	4.04	4.08	4.04	0.0	0.0	0.0	23.900000000000002	23.400000000000002	24.0	1	1	7.0	4.1	4.03	3.98	24.18	1	1	1	1	1	1	0	0	1	1	1	0	0	0	0	0	150	0	0	22	23	17	17
1.42	0.23	-42.35	0	-0.003	0.001	-0.009000000000000001	17	0.0	-0.00031999999999999997	0	0	0	0	0.231	-0.047	-9.341000000000001	0.68	-32640	0.0	0.0	0.0	0.0	4.0	3.99	4.01	4.05	4.1	4.05	0.0	0.0	0.0	23.900000000000002	23.400000000000002	24.0	1	1	7.0	4.0600000000000005	4.03	3.99	24.18	1	1	1	1	1	1	0	0	1	1	1	0	0	0	0	0	150	0	0	22	23	17	17
1.42	0.23	-42.36	0	0.0	0.0	-0.009000000000000001	17	0.0	0.0017984	0	0	0	0	0.20800000000000002	-0.014	-9.312	0.7000000000000001	-32640	0.0	0.0	0.0	0.0	4.0	3.98	4.03	4.0200000000000005	4.08	4.0600000000000005	0.0	0.0	0.0	23.900000000000002	23.400000000000002	24.0	1	1	7.0	4.03	4.01	3.98	24.09	1	1	1	1	1	1	0	0	1	1	1	0	0	0	0	0	150	0	0	22	23	17	17
1.42	0.23	-42.36	0	0.0	0.0	-0.009000000000000001	17	0.0	0.0012416	0	0	0	0	0.224	-0.009000000000000001	-9.318	0.68	128	0.0	0.0	0.0	0.0	4.0	3.97	4.03	4.05	4.07	4.0600000000000005	0.0	0.0	0.0	23.900000000000002	23.400000000000002	24.0	1	1	7.0	4.0600000000000005	4.01	3.99	24.11	1	1	1	1	1	1	0	0	1	1	1	2	0	7	0	0	150	0	0	22	23	17	17
1.42	0.23	-42.36	0	0.002	-0.001	-0.01	17	0.0	0.0032384	0	0	0	0	0.234	-0.04	-9.308	0.6900000000000001	128	0.0	0.0	0.0	0.0	4.0	3.98	4.0200000000000005	4.04	4.05	4.03	0.0	0.0	0.0	23.900000000000002	23.400000000000002	24.0	1	1	7.0	4.04	4.01	3.98	24.07	1	1	1	1	1	1	0	0	1	1	1	5	0	10	0	0	150	0	0	22	23	17	17
1.42	0.23	-42.37	0	0.002	-0.001	-0.01	17	0.0	-0.00021119999999999998	0	0	0	0	0.243	-0.066	-9.304	0.68	-32640	0.0	0.0	0.0	0.0	4.0	3.98	4.04	4.03	4.0600000000000005	4.03	0.0	0.0	0.0	23.900000000000002	23.400000000000002	24.0	1	1	7.0	4.07	4.0200000000000005	3.99	24.150000000000002	1	1	1	1	1	1	0	0	1	1	1	9	0	22	0	1	150	0	0	22	23	17	17
1.42	0.23	-42.37	0	0.0	-0.001	-0.009000000000000001	17	0.0	0.0032384	0	0	0	0	0.233	-0.038	-9.33	0.67	-32640	0.0	0.0	0.0	0.0	3.99	3.98	4.0200000000000005	4.04	4.03	4.04	0.0	0.0	0.0	24.0	23.400000000000002	24.0	1	1	7.0	4.0600000000000005	4.01	3.99	24.080000000000002	1	1	1	1	1	1	0	0	1	1	1	12	0	28	0	2	150	0	0	22	23	17	17
1.42	0.23	-42.38	0	0.0	-0.001	-0.011	17	0.0	-0.00031999999999999997	0	0	0	0	0.215	-0.031	-9.312	0.68	-32640	0.0	0.0	0.0	0.0	3.99	3.99	4.04	4.0200000000000005	4.0600000000000005	4.0200000000000005	0.0	0.0	0.0	23.900000000000002	23.400000000000002	24.0	1	1	7.0	4.0600000000000005	4.01	3.98	24.1	1	1	1	1	1	1	0	0	1	1	1	17	0	39	0	2	150	0	0	22	23	17	17
1.42	0.23	-42.39	0	0.0	0.0	-0.009000000000000001	17	0.0	0.00023679999999999998	0	0	0	0	0.201	-0.032	-9.322000000000001	0.68	128	0.0	0.0	0.0	0.0	4.0	3.99	4.01	4.03	4.04	4.0	0.0	0.0	0.0	23.900000000000002	23.400000000000002	24.0	1	1	7.0	4.03	4.0	3.99	24.03	1	1	1	1	1	1	0	0	1	1	1	16	0	46	0	3	150	0	0	22	23	14	18
1.42	0.23	-42.39	0	-0.001	0.0	-0.011	17	0.0	-0.00031999999999999997	0	0	0	0	0.191	0.0	-9.292	0.68	128	0.0	0.0	0.0	0.0	4.01	3.98	4.0200000000000005	4.04	4.05	4.01	0.0	0.0	0.0	23.900000000000002	23.400000000000002	24.0	1	1	7.0	4.03	4.01	3.97	24.07	1	1	1	1	1	1	0	0	1	1	1	20	0	55	0	4	150	0	0	22	23	14	18
1.42	0.23	-42.39	0	-0.001	0.0	-0.011	17	0.0	-0.000864	0	0	0	0	0.191	-0.003	-9.299	0.7000000000000001	-32640	0.0	0.0	0.0	0.0	4.0	3.98	4.0200000000000005	4.0200000000000005	4.0200000000000005	4.03	0.0	0.0	0.0	23.900000000000002	23.400000000000002	24.0	1	1	7.0	4.05	4.01	3.98	24.11	1	1	1	1	1	1	0	0	1	1	1	22	0	60	0	4	150	0	0	22	23	14	18
1.42	0.24	-42.4	0	0.001	0.0	-0.009000000000000001	17	0.0	0.0032384	0	0	0	0	0.221	0.022	-9.298	0.6900000000000001	-32640	0.0	0.0	0.0	0.0	4.0	3.98	4.01	4.0200000000000005	4.03	4.03	0.0	0.0	0.0	23.900000000000002	23.400000000000002	24.0	1	1	7.0	4.04	4.0200000000000005	3.98	24.13	1	1	1	1	1	1	0	0	1	1	1	23	0	66	0	5	150	0	0	22	23	14	18
1.42	0.24	-42.4	0	0.001	0.001	-0.009000000000000001	17	0.0	-0.00031999999999999997	0	0	0	0	0.211	-0.008	-9.307	0.67	-32640	0.0	0.0	0.0	0.0	3.99	3.98	4.03	4.01	4.05	4.01	0.0	0.0	0.0	23.900000000000002	23.400000000000002	24.0	1	1	7.0	4.05	4.01	3.98	24.080000000000002	1	1	1	1	1	1	0	0	1	1	1	25	0	66	0	5	150	0	0	22	23	15	17
1.42	0.24	-42.4	0	0.002	-0.001	-0.009000000000000001	17	0.0	0.0016895999999999999	0	0	0	0	0.224	-0.048	-9.267	0.66	128	0.0	0.0	0.0	0.0	3.99	3.98	4.0200000000000005	4.0200000000000005	4.05	4.03	0.0	0.0	0.0	23.900000000000002	23.400000000000002	24.0	1	1	7.0	4.04	4.0	3.98	24.03	1	1	1	1	1	1	0	0	1	1	1	26	0	69	0	5	150	0	0	22	23	15	17
1.42	0.23	-42.410000000000004	0	0.0	0.0	-0.011	17	0.0	-0.00031999999999999997	0	0	0	0	0.202	-0.007	-9.3	0.67	128	0.0	0.0	0.0	0.0	3.99	3.97	4.01	4.0	4.01	4.03	0.0	0.0	0.0	23.900000000000002	23.400000000000002	24.0	1	1	7.0	4.0200000000000005	4.0	3.97	24.01	1	1	1	1	1	1	0	0	1	1	1	25	0	72	0	5	150	0	0	22	23	15	17
1.42	0.23	-42.42	0	-0.001	0.0	-0.01	17	0.0	-0.00031999999999999997	0	0	0	0	0.20800000000000002	0.013000000000000001	-9.333	0.6900000000000001	128	0.0	0.0	0.0	0.0	4.0	3.97	4.04	4.03	4.0200000000000005	4.01	0.0	0.0	0.0	23.900000000000002	23.3	24.0	1	1	7.0	4.0200000000000005	4.0	3.97	24.02	1	1	1	1	1	1	0	0	1	1	1	30	0	71	0	5	150	0	0	22	23	15	17
1.42	0.23	-42.42	0	0.0	0.0	-0.008	17	0.0	0.00023679999999999998	0	0	0	0	0.182	0.018000000000000002	-9.302	0.68	-32640	0.0	0.0	0.0	0.0	3.99	3.97	4.0200000000000005	4.03	4.03	4.05	0.0	0.0	0.0	23.900000000000002	23.400000000000002	24.0	1	1	8.0	4.0200000000000005	4.0	3.98	24.0	1	1	1	1	1	1	0	0	1	1	1	31	0	75	0	5	150	0	0	22	23	17	18
1.42	0.23	-42.42	0	-0.001	0.0	-0.01	17	0.0	-0.0028672	0	0	0	0	0.203	0.001	-9.32	0.6900000000000001	-32640	0.0	0.0	0.0	0.0	3.99	3.98	4.0200000000000005	4.0200000000000005	4.04	4.03	0.0	0.0	0.0	23.900000000000002	23.400000000000002	24.0	1	1	7.0	4.04	4.01	3.98	24.080000000000002	1	1	1	1	1	1	0	0	1	1	1	34	0	77	0	5	150	0	0	22	23	17	18
1.42	0.24	-42.43	0	0.0	0.001	-0.01	17	0.0	-0.00031999999999999997	0	0	0	0	0.218	-0.03	-9.294	0.7000000000000001	-32640	0.0	0.0	0.0	0.0	4.0	3.98	4.01	4.01	4.07	4.03	0.0	0.0	0.0	23.900000000000002	23.400000000000002	24.0	1	1	7.0	4.0600000000000005	4.01	3.99	24.1	1	1	1	1	1	1	0	0	1	1	1	37	0	79	0	6	150	0	0	22	23	17	18
1.42	0.24	-42.43	0	0.001	0.001	-0.011	17	0.0	-0.0028672	0	0	0	0	0.218	-0.037	-9.304	0.68	128	0.0	0.0	0.0	0.0	4.0	3.98	4.0	4.01	4.04	4.01	0.0	0.0	0.0	23.900000000000002	23.3	24.0	1	1	8.0	4.04	4.0	3.97	24.05	1	1	1	1	1	1	0	0	1	1	1	40	0	78	0	5	150	0	0	22	23	17	18
1.42	0.24	-42.44	0	0.001	0.001	-0.012	17	0.0	-0.00031999999999999997	0	0	0	0	0.20800000000000002	-0.032	-9.286	0.68	128	0.0	0.0	0.0	0.0	4.01	3.98	4.0200000000000005	4.05	4.03	4.04	0.0	0.0	0.0	23.900000000000002	23.400000000000002	24.0	1	1	7.0	4.05	4.01	3.97	24.060000000000002	1	1	1	1	1	1	0	0	1	1	1	41	0	78	0	5	150	0	0	22	23	17	17
1.42	0.24	-42.44	0	0.0	0.001	-0.011	17	0.0	-0.0017599999999999998	0	0	0	0	0.20800000000000002	-0.022	-9.311	0.6900000000000001	-32640	0.0	0.0	0.0	0.0	4.0	3.97	4.0	4.03	4.03	4.0200000000000005	0.0	0.0	0.0	23.900000000000002	23.400000000000002	24.0	1	1	7.0	4.0200000000000005	4.0	3.98	24.02	1	1	1	1	1	1	0	0	1	1	1	37	0	73	0	5	150	0	0	22	23	17	17
1.42	0.24	-42.45	0	0.0	0.0	-0.01	17	0.0	-0.0017599999999999998	0	0	0	0	0.199	-0.024	-9.287	0.68	-32640	0.0	0.0	0.0	0.0	4.0	3.99	4.0	4.03	4.0600000000000005	4.05	0.0	0.0	0.0	23.900000000000002	23.3	24.0	1	1	7.0	4.0200000000000005	4.0	3.97	24.02	1	1	1	1	1	1	0	0	1	1	1	34	0	70	0	5	150	0	0	22	23	17	17
1.42	0.23	-42.45	0	0.0	-0.001	-0.011	17	0.0	0.00023679999999999998	0	0	0	0	0.218	-0.012	-9.322000000000001	0.68	128	0.0	0.0	0.0	0.0	3.99	3.98	4.01	4.0200000000000005	4.03	4.0	0.0	0.0	0.0	23.900000000000002	23.400000000000002	24.0	1	1	7.0	4.0600000000000005	4.01	3.97	24.060000000000002	1	1	1	1	1	1	0	0	1	1	1	30	0	68	0	5	150	0	0	22	23	17	17
1.42	0.23	-42.45	0	0.0	-0.001	-0.012	17	0.0	-0.0028672	0	0	0	0	0.212	-0.028	-9.303	0.67	128	0.0	0.0	0.0	0.0	3.99	3.97	4.01	4.0200000000000005	4.03	4.0200000000000005	0.0	0.0	0.0	23.900000000000002	23.400000000000002	24.0	1	1	7.0	4.05	4.01	3.97	24.060000000000002	1	1	1	1	1	1	0	0	1	1	1	26	0	64	0	4	150	0	0	22	23	19	17
1.42	0.24	-42.45	0	0.0	0.0	-0.011	17	0.0	-0.0028672	0	0	0	0	0.183	-0.02	-9.353	0.68	-32640	0.0	0.0	0.0	0.0	3.99	3.99	4.01	4.03	4.05	4.05	0.0	0.0	0.0	23.900000000000002	23.3	24.0	1	1	7.0	4.05	4.01	3.98	24.080000000000002	1	1	1	1	1	1	0	0	1	1	1	21	0	60	0	4	150	0	0	22	23	19	17
1.42	0.24	-42.46	0	0.0	0.0	-0.01	17	0.0	-0.0028672	0	0	0	0	0.21	-0.011	-9.374	0.7000000000000001	128	0.0	0.0	0.0	0.0	3.99	3.98	4.0	4.05	4.05	4.03	0.0	0.0	0.0	23.900000000000002	23.400000000000002	24.0	1	1	7.0	4.0600000000000005	4.01	3.98	24.09	1	1	1	1	1	1	0	0	1	1	1	21	0	57	0	4	150	0	0	22	23	19	17
1.42	0.24	-42.46	0	0.002	0.0	-0.011	17	0.0	-0.0028672	0	0	0	0	0.215	0.041	-9.331	0.67	128	0.0	0.0	0.0	0.0	4.0	3.98	4.03	4.05	4.04	4.0200000000000005	0.0	0.0	0.0	23.900000000000002	23.400000000000002	24.0	1	1	7.0	4.04	4.01	3.98	24.09	1	1	1	1	1	1	0	0	1	1	1	17	0	51	0	3	150	0	0	22	23	19	17
1.42	0.24	-42.46	0	0.0	-0.001	-0.01	17	0.0	-0.0028672	0	0	0	0	0.215	-0.013000000000000001	-9.341000000000001	0.68	-32640	0.0	0.0	0.0	0.0	4.0	3.98	4.03	4.03	4.0600000000000005	4.03	0.0	0.0	0.0	23.900000000000002	23.400000000000002	24.0	1	1	7.0	4.04	4.0	3.97	24.05	1	1	1	1	1	1	0	0	1	1	1	14	0	48	0	3	150	0	0	22	23	21	17
1.43	0.23	-42.47	0	0.0	0.0	-0.01	17	0.0	-0.0017599999999999998	0	0	0	0	0.21	-0.025	-9.347	0.68	-32640	0.0	0.0	0.0	0.0	4.0	3.98	4.04	4.03	4.0600000000000005	4.03	0.0	0.0	0.0	23.900000000000002	23.400000000000002	24.0	1	1	7.0	4.07	4.0200000000000005	3.98	24.13	1	1	1	1	1	1	0	0	1	1	1	12	0	44	0	3	150	0	0	22	23	21	17
1.42	0.23	-42.47	0	0.0	0.0	-0.01	17	0.0	-0.0028672	0	0	0	0	0.20800000000000002	-0.025	-9.32	0.7000000000000001	128	0.0	0.0	0.0	0.0	4.0	3.97	4.01	4.01	4.05	4.04	0.0	0.0	0.0	23.900000000000002	23.400000000000002	24.0	1	1	7.0	4.1	4.03	3.99	24.19	1	1	1	1	1	1	0	0	1	1	1	10	0	41	0	3	150	0	0	22	23	21	17
1.42	0.23	-42.47	0	0.0	0.002	-0.009000000000000001	17	0.0	-0.0028672	0	0	0	0	0.20800000000000002	-0.016	-9.331	0.67	128	0.0	0.0	0.0	0.0	3.99	4.0	4.04	4.0200000000000005	4.04	4.0600000000000005	0.0	0.0	0.0	23.900000000000002	23.400000000000002	24.0	1	1	7.0	4.07	4.03	3.99	24.19	1	1	1	1	1	1	0	0	1	1	1	8	0	39	0	2	150	0	0	22	23	21	17
1.42	0.24	-42.480000000000004	0	0.0	0.0	-0.01	17	0.0	-0.0017599999999999998	0	0	0	0	0.19	-0.03	-9.333	0.67	-32640	0.0	0.0	0.0	0.0	3.99	3.98	4.01	4.0200000000000005	4.0200000000000005	4.01	0.0	0.0	0.0	23.900000000000002	23.400000000000002	24.0	1	1	7.0	4.07	4.0200000000000005	3.98	24.150000000000002	1	1	1	1	1	1	0	0	1	1	1	7	0	37	0	2	150	0	0	22	23	18	17
1.42	0.24	-42.480000000000004	0	0.0	0.0	-0.01	17	0.0	-0.0023168	0	0	0	0	0.222	-0.025	-9.327	0.67	-32640	0.0	0.0	0.0	0.0	3.99	3.97	4.04	4.05	4.08	4.05	0.0	0.0	0.0	24.0	23.400000000000002	24.0	1	1	7.0	4.08	4.0200000000000005	3.98	24.14	1	1	1	1	1	1	0	0	1	1	1	7	0	39	0	2	150	0	0	22	23	18	17
1.43	0.24	-42.49	0	0.0	0.0	-0.011	17	0.0	-0.0023168	0	0	0	0	0.24	-0.052000000000000005	-9.336	0.67	-32640	0.0	0.0	0.0	0.0	3.99	3.97	4.01	4.03	4.08	4.03	0.0	0.0	0.0	23.900000000000002	23.5	24.0	1	1	7.0	4.1	4.04	3.98	24.240000000000002	1	1	1	1	1	1	0	0	1	1	1	9	0	41	0	3	150	0	0	22	23	18	17
1.43	0.24	-42.49	0	0.0	0.0	-0.009000000000000001	17	0.0	-0.0017599999999999998	1	1	1	0	0.257	-0.018000000000000002	-9.34	0.6900000000000001	-32640	0.0	0.0	0.0	0.0	4.0200000000000005	3.98	4.03	4.04	4.09	4.05	0.0	0.0	0.0	23.900000000000002	23.400000000000002	24.0	1	1	7.0	4.08	4.03	3.97	24.19	1	1	1	1	1	1	0	0	1	1	1	11	0	48	0	3	150	0	0	22	23	18	17
1.43	0.24	-42.49	0	-0.001	0.001	-0.01	17	0.0	-0.0017599999999999998	8	6	7	0	0.259	-0.06	-9.323	0.68	-32640	0.0	0.0	0.0	0.0	4.0200000000000005	4.0	4.0600000000000005	4.05	4.1	4.07	0.0	0.0	0.0	24.0	23.5	24.0	1	1	7.0	4.08	4.04	3.99	24.25	1	1	1	1	1	1	0	0	1	1	1	15	0	53	0	4	150	0	0	22	23	15	17
1.43	0.24	-42.51	0	-0.001	0.0	-0.012	17	0.0	0.00224	11	10	10	0	0.226	-0.057	-9.341000000000001	0.7000000000000001	-32640	0.0	0.0	0.0	0.0	4.01	3.98	4.04	4.07	4.1	4.07	0.0	0.0	0.0	23.900000000000002	23.5	24.0	1	1	8.0	4.0600000000000005	4.03	4.0	24.22	1	1	1	1	1	1	0	0	1	1	1	26	0	64	0	4	150	0	0	22	23	15	17
1.43	0.24	-42.51	0	0.001	0.0	-0.01	17	0.0	-0.0017599999999999998	14	12	13	0	0.21	-0.037	-9.370000000000001	0.71	128	0.0	0.0	0.0	0.0	4.0	4.0	4.08	4.07	4.09	4.09	0.0	0.0	0.0	23.900000000000002	23.5	24.0	1	1	7.0	4.1	4.0600000000000005	3.99	24.38	1	1	1	1	1	1	0	0	1	1	1	28	0	71	0	5	150	0	0	22	23	15	17
1.43	0.24	-42.52	0	0.001	0.0	-0.008	17	0.0	0.0011328	14	12	13	0	0.241	-0.052000000000000005	-9.342	0.66	128	0.0	0.0	0.0	0.0	3.99	3.99	4.07	4.09	4.14	4.1	0.0	0.0	0.0	23.900000000000002	23.400000000000002	24.0	1	1	7.0	4.11	4.05	3.98	24.34	1	1	1	1	1	1	0	0	1	1	1	40	0	81	0	6	150	0	0	22	23	15	17
1.43	0.24	-42.52	0	0.0	0.0	-0.011	17	0.0	0.00224	14	12	13	0	0.23800000000000002	-0.03	-9.364	0.6900000000000001	128	0.0	0.0	0.0	0.0	4.0	3.98	4.09	4.11	4.09	4.1	0.0	0.0	0.0	23.900000000000002	23.400000000000002	24.0	1	1	7.0	4.11	4.05	3.98	24.32	1	1	1	1	1	1	0	0	1	1	1	46	0	88	0	6	150	0	0	22	23	17	18
1.43	0.24	-42.52	0	0.0	0.0	-0.009000000000000001	17	0.0	-0.0017599999999999998	14	12	13	0	0.262	-0.046	-9.349	0.6900000000000001	-32640	0.0	0.0	0.0	0.0	4.01	3.98	4.07	4.1	4.1	4.08	0.0	0.0	0.0	23.900000000000002	23.400000000000002	24.0	1	1	7.0	4.12	4.0600000000000005	3.99	24.38	1	1	1	1	1	1	0	0	1	1	1	62	0	98	0	7	150	0	0	22	23	17	18
1.43	0.24	-42.52	0	0.0	0.001	-0.009000000000000001	17	0.0	0.0016895999999999999	14	12	13	0	0.279	-0.065	-9.345	0.7000000000000001	-32640	0.0	0.0	0.0	0.0	4.04	4.01	4.0600000000000005	4.09	4.13	4.09	0.0	0.0	0.0	23.900000000000002	23.400000000000002	24.0	1	1	7.0	4.12	4.0600000000000005	4.0	24.400000000000002	1	1	1	1	1	1	0	0	1	1	1	60	0	103	0	7	150	0	0	22	23	17	18
1.43	0.24	-42.53	0	-0.001	0.0	-0.011	17	0.0	0.00224	13	12	12	0	0.228	-0.063	-9.357	0.7000000000000001	-32640	0.0	0.0	0.0	0.0	4.01	3.98	4.07	4.08	4.11	4.1	0.0	0.0	0.0	24.0	23.400000000000002	24.0	1	1	7.0	4.13	4.07	4.0	24.42	1	1	1	1	1	1	0	0	1	1	1	71	0	113	0	8	150	0	0	22	23	17	18
1.43	0.24	-42.53	0	0.0	0.0	-0.009000000000000001	17	0.0	-0.0017599999999999998	12	10	11	0	0.245	-0.075	-9.344	0.7000000000000001	128	0.0	0.0	0.0	0.0	4.01	3.99	4.07	4.07	4.13	4.09	0.0	0.0	0.0	23.900000000000002	23.3	24.0	1	1	7.0	4.09	4.04	4.0	24.29	1	1	1	1	1	1	0	0	1	1	1	64	0	119	0	9	150	0	0	22	23	17	17
1.43	0.24	-42.53	0	0.0	0.0	-0.008	17	0.0	0.00224	11	10	10	0	0.266	-0.076	-9.343	0.6900000000000001	128	0.0	0.0	0.0	0.0	3.99	3.98	4.08	4.0600000000000005	4.12	4.1	0.0	0.0	0.0	23.900000000000002	23.3	24.0	1	1	7.0	4.09	4.03	3.99	24.23	1	1	1	1	1	1	0	0	1	1	1	68	0	128	0	9	150	0	0	22	23	17	17
1.43	0.24	-42.54	0	0.001	0.0	-0.01	17	0.0	0.00224	9	8	8	0	0.259	-0.07200000000000001	-9.375	0.6900000000000001	128	0.0	0.0	0.0	0.0	4.01	3.99	4.03	4.07	4.11	4.1	0.0	0.0	0.0	23.900000000000002	23.400000000000002	24.0	1	1	7.0	4.05	4.0200000000000005	3.98	24.12	1	1	1	1	1	1	0	0	1	1	1	72	0	134	0	10	150	0	0	22	23	17	17
1.43	0.24	-42.54	0	0.001	0.0	-0.008	17	0.0	0.00224	7	6	6	0	0.23700000000000002	-0.089	-9.38	0.67	128	0.0	0.0	0.0	0.0	4.0	4.0	4.08	4.11	4.09	4.07	0.0	0.0	0.0	23.900000000000002	23.400000000000002	24.0	1	1	7.0	4.08	4.03	3.99	24.19	1	1	1	1	1	1	0	0	1	1	1	78	0	144	0	11	150	0	0	22	23	17	17
1.43	0.24	-42.550000000000004	0	0.0	-0.001	-0.01	17	0.0	0.00224	7	6	6	0	0.252	-0.083	-9.371	0.71	128	0.0	0.0	0.0	0.0	3.99	3.97	4.0200000000000005	4.05	4.0600000000000005	4.05	0.0	0.0	0.0	23.900000000000002	23.3	24.0	1	1	7.0	4.0600000000000005	4.0200000000000005	3.98	24.13	1	1	1	1	1	1	0	0	1	1	1	100	0	146	0	11	150	0	0	22	23	17	16
1.43	0.24	-42.550000000000004	0	0.0	0.001	-0.011	17	0.0	0.00224	5	4	4	0	0.251	-0.07200000000000001	-9.345	0.68	-32640	0.0	0.0	0.0	0.0	4.0	3.98	4.04	4.03	4.04	4.01	0.0	0.0	0.0	23.900000000000002	23.3	24.0	1	1	7.0	4.04	4.01	3.97	24.09	1	1	1	1	1	1	0	0	1	1	1	102	0	156	0	11	150	0	0	22	23	17	16
1.43	0.24	-42.550000000000004	0	0.0	0.0	-0.009000000000000001	17	0.0	0.00224	4	3	3	0	0.275	-0.108	-9.353	0.6900000000000001	-32640	0.0	0.0	0.0	0.0	3.99	3.98	4.03	4.0200000000000005	4.04	4.04	0.0	0.0	0.0	23.900000000000002	23.400000000000002	24.0	1	1	7.0	4.05	4.0200000000000005	3.97	24.13	1	1	1	1	1	1	0	0	1	1	1	96	0	162	0	12	150	0	0	22	23	17	16
1.43	0.24	-42.550000000000004	0	0.0	0.0	-0.008	17	0.0	0.00224	1	1	1	0	0.289	-0.056	-9.318	0.68	-32640	0.0	0.0	0.0	0.0	4.0	3.98	4.01	4.04	4.0600000000000005	4.07	0.0	0.0	0.0	23.900000000000002	23.3	24.0	1	1	7.0	4.0600000000000005	4.0200000000000005	3.98	24.13	1	1	1	1	1	1	0	0	1	1	1	98	0	168	0	12	150	0	0	22	23	17	16
1.43	0.24	-42.56	0	0.001	0.001	-0.007	17	0.0	0.0016895999999999999	0	0	0	0	0.279	-0.054	-9.332	0.65	128	0.0	0.0	0.0	0.0	4.01	4.0200000000000005	4.05	4.0600000000000005	4.08	4.0200000000000005	0.0	0.0	0.0	23.900000000000002	23.400000000000002	24.0	1	1	7.0	4.0600000000000005	4.0200000000000005	3.98	24.13	1	1	1	1	1	1	0	0	1	1	1	105	0	174	0	13	150	0	0	22	23	18	17
