Latitude	Longitude	Altidude	Barometric_Pressure	a_x	a_y	a_z	BPPS	Heading	REFRI_ON	LV_ON	CURRENT	V_max	V_mean	V_min	V_tot	ANGLE	v_x	v_y	v_z	Status	PosU	VelU	PITCH	ROLL	YAW	Roll_Rate_x	Pitch_Rate_y	Yaw_Rate_z	APPS_1	APPS_2	APPS_AV	IMP_FLAG	V1	V2	V3	V4	V5	V6	T1	T2	T3	rrRPM	rrTRQ	rlRPM	rlTRQ	speed	trqLimit	leftDem	rightDem	leftPowerStageTemp	rightPowerStageTemp	leftMotorTemp	rightMotorTemp	R2D	SCS	SL	BSPD	IMD	AMS	APPS	IMU	REFRI	RIGHT_INV	LEFT_INV
0.0	0.0	0.0	0.00023679999999999998	-0.11	0.028	-9.370000000000001	4	0.7000000000000001	1	1	7.0	4.24	4.13	4.0	24.78	16	0.0	0.0	0.0	-32640	0.0	0.0	0.09	0.22	-39.24	0.001	-0.003	-0.002	0	0	0	0	4.04	3.99	4.07	4.13	4.17	4.13	24.1	23.6	24.200000000000003	0	0	0	0	0	150	0	0	22	23	16	18	1	1	1	1	1	1	0	0	1	1	1
0.0	0.0	0.0	-0.0012096	0.035	0.08600000000000001	-9.442	4	0.68	1	1	7.0	4.17	4.09	3.99	24.560000000000002	16	0.0	0.0	0.0	-32640	0.0	0.0	0.09	0.22	-39.25	0.0	0.003	-0.003	0	0	0	0	4.0	4.0200000000000005	4.07	4.08	4.13	4.17	24.1	23.6	24.1	0	0	0	0	0	150	0	0	22	23	15	17	1	1	1	1	1	1	0	0	1	1	1
0.0	0.0	0.0	-0.0032064	0.07	0.019	-9.365	4	0.6900000000000001	1	1	8.0	4.21	4.11	4.01	24.68	16	0.0	0.0	0.0	128	0.0	0.0	0.09	0.22	-39.25	0.0	-0.005	-0.009000000000000001	0	0	0	0	4.0200000000000005	4.0	4.11	4.19	4.22	4.21	24.1	23.6	24.1	0	0	0	0	0	150	0	0	22	23	15	17	1	1	1	1	1	1	0	0	1	1	1
0.0	0.0	0.0	-0.00031999999999999997	0.067	-0.21	-9.146	4	0.7000000000000001	1	1	8.0	4.18	4.1	4.0	24.63	16	0.0	0.0	0.0	128	0.0	0.0	0.1	0.22	-39.25	-0.001	-0.001	-0.004	0	0	0	0	4.07	3.99	4.12	4.18	4.24	4.23	24.1	23.5	24.200000000000003	0	0	0	0	0	150	0	0	22	23	15	17	1	1	1	1	1	1	0	0	1	1	1
0.0	0.0	0.0	-0.0032064	0.053	-0.213	-9.251	4	0.7000000000000001	1	1	7.0	4.24	4.11	4.0	24.7	16	0.0	0.0	0.0	128	0.0	0.0	0.09	0.22	-39.27	0.0	0.0	-0.003	0	0	0	0	4.01	4.0	4.08	4.16	4.18	4.14	24.1	23.6	24.200000000000003	0	0	0	0	0	150	0	0	22	23	15	17	1	1	1	1	1	1	0	0	1	1	1
0.0	0.0	0.0	-0.0023168	0.055	0.136	-9.41	4	0.73	1	1	8.0	4.21	4.1	3.99	24.650000000000002	16	0.0	0.0	0.0	-32640	0.0	0.0	0.09	0.22	-39.28	0.0	-0.003	-0.004	0	0	0	0	4.01	4.0	4.07	4.18	4.18	4.15	24.1	23.6	24.200000000000003	0	0	0	0	0	150	0	0	22	23	17	16	1	1	1	1	1	1	0	0	1	1	1
0.0	0.0	0.0	0.00023679999999999998	-0.01	0.094	-9.365	4	0.71	1	1	7.0	4.19	4.1	4.0	24.6	16	0.0	0.0	0.0	-32640	0.0	0.0	0.09	0.21	-39.28	0.003	-0.003	-0.007	0	0	0	0	4.03	3.98	4.08	4.18	4.21	4.11	24.1	23.6	24.200000000000003	0	0	0	0	0	150	0	0	22	23	17	16	1	1	1	1	1	1	0	0	1	1	1
0.0	0.0	0.0	0.00023679999999999998	-0.036000000000000004	-0.168	-9.315	4	0.72	1	1	7.0	4.21	4.12	4.01	24.73	16	0.0	0.0	0.0	128	0.0	0.0	0.1	0.21	-39.29	0.002	0.0	-0.004	0	0	0	0	4.05	4.05	4.13	4.21	4.22	4.21	24.1	23.6	24.200000000000003	0	0	0	0	0	150	0	0	22	23	17	16	1	1	1	1	1	1	0	0	1	1	1
0.0	0.0	0.0	0.00023679999999999998	0.042	-0.063	-9.234	4	0.6900000000000001	1	1	8.0	4.2	4.1	4.04	24.64	16	0.0	0.0	0.0	128	0.0	0.0	0.09	0.22	-39.29	0.0	0.001	-0.001	0	0	0	0	4.01	4.01	4.09	4.2	4.19	4.2	24.1	23.6	24.200000000000003	0	0	0	0	0	150	0	0	22	23	18	17	1	1	1	1	1	1	0	0	1	1	1
0.0	0.0	0.0	0.0007936	0.077	0.075	-9.268	4	0.6900000000000001	1	1	7.0	4.23	4.12	4.01	24.76	16	0.0	0.0	0.0	128	0.0	0.0	0.09	0.22	-39.31	-0.004	0.003	-0.002	0	0	0	0	4.01	4.01	4.14	4.19	4.25	4.29	24.1	23.6	24.200000000000003	0	0	0	0	0	150	0	0	22	23	18	17	1	1	1	1	1	1	0	0	1	1	1
0.0	0.0	0.0	0.002688	-0.048	-0.004	-9.414	4	0.74	1	1	7.0	4.19	4.1	3.98	24.64	16	0.0	0.0	0.0	-32640	0.0	0.0	0.09	0.22	-39.32	-0.001	0.001	-0.004	0	0	0	0	4.04	4.01	4.1	4.22	4.23	4.23	24.1	23.6	24.1	0	0	0	0	0	150	0	0	22	23	18	17	1	1	1	1	1	1	0	0	1	1	1
0.0	0.0	0.0	0.0027968	-0.076	-0.036000000000000004	-9.302	4	0.7000000000000001	1	1	7.0	4.19	4.09	3.98	24.560000000000002	16	0.0	0.0	0.0	-32640	0.0	0.0	0.09	0.22	-39.33	0.0	0.0	-0.007	0	0	0	0	4.01	4.07	4.15	4.12	4.17	4.19	24.1	23.6	24.200000000000003	0	0	0	0	0	150	0	0	22	23	18	17	1	1	1	1	1	1	0	0	1	1	1
0.0	0.0	0.0	0.0027968	0.052000000000000005	-0.009000000000000001	-9.209	4	0.7000000000000001	1	1	7.0	4.21	4.11	3.99	24.68	16	0.0	0.0	0.0	128	0.0	0.0	0.09	0.22	-39.33	0.001	-0.001	-0.005	0	0	0	0	4.01	4.04	4.1	4.12	4.15	4.17	24.1	23.6	24.1	0	0	0	0	0	150	0	0	22	23	18	17	1	1	1	1	1	1	0	0	1	1	1
0.0	0.0	0.0	0.0027968	0.065	0.01	-9.273	4	0.7000000000000001	1	1	7.0	4.19	4.1	4.0	24.64	16	0.0	0.0	0.0	128	0.0	0.0	0.09	0.22	-39.33	0.001	0.0	-0.005	0	0	0	0	4.01	4.0200000000000005	4.12	4.15	4.2	4.19	24.1	23.6	24.200000000000003	0	0	0	0	0	150	0	0	22	23	18	17	1	1	1	1	1	1	0	0	1	1	1
0.0	0.0	0.0	0.0007936	-0.014	0.019	-9.399000000000001	4	0.6900000000000001	1	1	7.0	4.24	4.12	4.0200000000000005	24.740000000000002	16	0.0	0.0	0.0	128	0.0	0.0	0.09	0.22	-39.34	0.0	0.003	-0.003	0	0	0	0	4.03	4.0200000000000005	4.11	4.19	4.21	4.18	24.1	23.6	24.200000000000003	0	0	0	0	0	150	0	0	22	23	18	17	1	1	1	1	1	1	0	0	1	1	1
0.0	0.0	0.0	0.0007936	-0.073	0.068	-9.379	4	0.6900000000000001	1	1	7.0	4.2700000000000005	4.15	4.0	24.900000000000002	16	0.0	0.0	0.0	-32640	0.0	0.0	0.1	0.22	-39.36	-0.001	0.003	-0.003	0	0	0	0	4.03	3.99	4.08	4.18	4.23	4.2	24.1	23.700000000000003	24.200000000000003	0	0	0	0	0	150	0	0	22	23	18	18	1	1	1	1	1	1	0	0	1	1	1
0.0	0.0	0.0	0.0007936	-0.08700000000000001	0.001	-9.379	4	0.72	1	1	7.0	4.23	4.13	4.0200000000000005	24.8	16	0.0	0.0	0.0	-32640	0.0	0.0	0.1	0.22	-39.36	-0.001	0.003	-0.006	0	0	0	0	4.05	4.0200000000000005	4.12	4.22	4.19	4.22	24.1	23.6	24.200000000000003	0	0	0	0	0	150	0	0	22	23	18	18	1	1	1	1	1	1	0	0	1	1	1
0.0	0.0	0.0	-0.0018687999999999999	-0.003	-0.10300000000000001	-9.324	4	0.74	1	1	7.0	4.19	4.11	4.0200000000000005	24.68	16	0.0	0.0	0.0	128	0.0	0.0	0.09	0.22	-39.37	-0.001	0.001	-0.01	0	0	0	0	4.01	4.01	4.14	4.14	4.14	4.11	24.1	23.6	24.200000000000003	0	0	0	0	0	150	0	0	22	23	17	18	1	1	1	1	1	1	0	0	1	1	1
0.0	0.0	0.0	0.0027968	0.074	-0.041	-9.307	4	0.71	1	1	7.0	4.17	4.1	4.01	24.62	16	0.0	0.0	0.0	128	0.0	0.0	0.09	0.22	-39.38	-0.002	-0.001	-0.007	0	0	0	0	4.0200000000000005	4.0	4.1	4.09	4.18	4.16	24.1	23.5	24.1	0	0	0	0	0	150	0	0	22	23	17	18	1	1	1	1	1	1	0	0	1	1	1
0.0	0.0	0.0	-0.0006527999999999999	0.09	0.054	-9.227	4	0.72	1	1	7.0	4.21	4.11	4.0	24.67	16	0.0	0.0	0.0	-32640	0.0	0.0	0.1	0.22	-39.4	0.001	-0.003	-0.002	0	0	0	0	4.0	3.99	4.12	4.12	4.22	4.15	24.1	23.6	24.200000000000003	0	0	0	0	0	150	0	0	22	23	17	18	1	1	1	1	1	1	0	0	1	1	1
0.0	0.0	0.0	-0.0007616	0.018000000000000002	0.101	-9.231	4	0.7000000000000001	1	1	7.0	4.2	4.11	4.0	24.66	16	0.0	0.0	0.0	-32640	0.0	0.0	0.1	0.21	-39.410000000000004	0.0	0.005	-0.008	0	0	0	0	4.01	3.99	4.11	4.2	4.19	4.19	24.1	23.700000000000003	24.200000000000003	0	0	0	0	0	150	0	0	22	23	17	17	1	1	1	1	1	1	0	0	1	1	1
0.0	0.0	0.0	-0.0006527999999999999	-0.064	0.054	-9.356	4	0.71	1	1	7.0	4.23	4.1	3.98	24.62	16	0.0	0.0	0.0	-32640	0.0	0.0	0.1	0.21	-39.410000000000004	-0.001	0.0	-0.007	0	0	0	0	4.04	4.0	4.1	4.16	4.18	4.21	24.1	23.6	24.200000000000003	0	0	0	0	0	150	0	0	22	23	17	17	1	1	1	1	1	1	0	0	1	1	1
0.0	0.0	0.0	-0.0007616	-0.093	-0.041	-9.484	4	0.6900000000000001	1	1	7.0	4.18	4.09	4.0	24.580000000000002	16	0.0	0.0	0.0	128	0.0	0.0	0.09	0.21	-39.42	-0.004	-0.002	-0.005	0	0	0	0	4.03	4.0	4.0600000000000005	4.11	4.12	4.13	24.1	23.6	24.200000000000003	0	0	0	0	0	150	0	0	22	23	17	17	1	1	1	1	1	1	0	0	1	1	1
0.0	0.0	0.0	-0.0007616	-0.022	-0.064	-9.337	4	0.7000000000000001	1	1	7.0	4.24	4.12	4.03	24.77	16	0.0	0.0	0.0	128	0.0	0.0	0.1	0.22	-39.43	-0.003	-0.002	-0.005	0	0	0	0	4.03	3.99	4.0600000000000005	4.09	4.15	4.16	24.1	23.5	24.1	0	0	0	0	0	150	0	0	22	23	17	17	1	1	1	1	1	1	0	0	1	1	1
0.0	0.0	0.0	-0.0013184	0.06	0.029	-9.223	4	0.72	1	1	7.0	4.21	4.11	4.0	24.7	16	0.0	0.0	0.0	-32640	0.0	0.0	0.11	0.21	-39.46	-0.001	0.001	-0.006	0	0	0	0	4.01	4.0200000000000005	4.1	4.1	4.11	4.12	24.1	23.6	24.200000000000003	0	0	0	0	0	150	0	0	22	23	16	17	1	1	1	1	1	1	0	0	1	1	1
0.0	0.0	0.0	-0.0013184	0.08700000000000001	-0.043000000000000003	-9.173	3	0.7000000000000001	1	1	7.0	4.21	4.12	4.01	24.73	16	0.0	0.0	0.0	-32640	0.0	0.0	0.1	0.21	-39.480000000000004	0.0	0.003	-0.003	0	0	0	0	4.04	4.01	4.12	4.16	4.2	4.2	24.1	23.6	24.1	0	0	0	0	0	150	0	0	22	23	16	17	1	1	1	1	1	1	0	0	1	1	1
0.0	0.0	0.0	-0.0006527999999999999	0.09	-0.031	-9.229000000000001	3	0.6900000000000001	1	1	8.0	4.19	4.1	4.01	24.63	16	0.0	0.0	0.0	128	0.0	0.0	0.1	0.21	-39.480000000000004	0.001	-0.002	-0.004	0	0	0	0	4.0	4.01	4.09	4.09	4.15	4.17	24.1	23.6	24.1	0	0	0	0	0	150	0	0	22	23	16	17	1	1	1	1	1	1	0	0	1	1	1
0.0	0.0	0.0	0.0012416	0.015	-0.043000000000000003	-9.432	3	0.72	1	1	7.0	4.26	4.14	4.0200000000000005	24.89	16	0.0	0.0	0.0	-32640	0.0	0.0	0.11	0.21	-39.5	0.001	-0.001	-0.005	0	0	0	0	4.01	4.01	4.08	4.12	4.15	4.13	24.1	23.6	24.200000000000003	0	0	0	0	0	150	0	0	22	23	16	17	1	1	1	1	1	1	0	0	1	1	1
0.0	0.0	0.0	0.0032384	-0.089	-0.019	-9.43	2	0.7000000000000001	1	1	7.0	4.2	4.12	4.03	24.75	16	0.0	0.0	0.0	128	0.0	0.0	0.11	0.21	-39.51	0.0	0.0	-0.007	0	0	0	0	4.01	3.98	4.1	4.08	4.09	4.07	24.1	23.6	24.200000000000003	0	0	0	0	0	150	0	0	22	23	16	17	1	1	1	1	1	1	0	0	1	1	1
0.0	0.0	0.0	-0.00021119999999999998	-0.067	-0.004	-9.317	2	0.7000000000000001	1	1	7.0	4.13	4.08	4.01	24.51	16	0.0	0.0	0.0	128	0.0	0.0	0.1	0.21	-39.52	-0.001	0.001	-0.005	0	0	0	0	4.04	4.03	4.05	4.1	4.15	4.17	24.1	23.6	24.200000000000003	0	0	0	0	0	150	0	0	22	23	16	17	1	1	1	1	1	1	0	0	1	1	1
0.0	0.0	0.0	-0.0027584	-0.04	0.03	-9.258000000000001	2	0.68	1	1	8.0	4.21	4.1	3.99	24.64	16	0.0	0.0	0.0	-32640	0.0	0.0	0.11	0.2	-39.54	0.0	0.0	-0.006	0	0	0	0	4.01	3.99	4.09	4.1	4.15	4.14	24.1	23.6	24.200000000000003	0	0	0	0	0	150	0	0	22	23	17	17	1	1	1	1	1	1	0	0	1	1	1
0.0	0.0	0.0	0.0032384	0.171	-0.046	-9.364	2	0.7000000000000001	1	1	8.0	4.19	4.1	3.98	24.63	16	0.0	0.0	0.0	-32640	0.0	0.0	0.11	0.21	-39.54	0.001	0.0	-0.006	0	0	0	0	4.05	3.99	4.07	4.12	4.17	4.18	24.1	23.700000000000003	24.200000000000003	0	0	0	0	0	150	0	0	22	23	17	17	1	1	1	1	1	1	0	0	1	1	1
0.0	0.0	0.0	0.0032384	-0.073	-0.051000000000000004	-9.459	1	0.7000000000000001	1	1	8.0	4.15	4.09	4.0	24.57	16	0.0	0.0	0.0	128	0.0	0.0	0.11	0.21	-39.550000000000004	0.002	0.0	-0.004	0	0	0	0	4.0200000000000005	3.98	4.11	4.21	4.19	4.17	24.1	23.6	24.1	0	0	0	0	0	150	0	0	22	23	17	17	1	1	1	1	1	1	0	0	1	1	1
0.0	0.0	0.0	0.0032384	-0.198	-0.07100000000000001	-9.416	1	0.71	1	1	7.0	4.16	4.09	4.0	24.59	16	0.0	0.0	0.0	128	0.0	0.0	0.1	0.21	-39.550000000000004	0.0	0.0	-0.002	0	0	0	0	4.0600000000000005	4.03	4.11	4.11	4.14	4.13	24.1	23.700000000000003	24.200000000000003	0	0	0	0	0	150	0	0	22	23	17	17	1	1	1	1	1	1	0	0	1	1	1
0.0	0.0	0.0	0.0032384	-0.121	-0.066	-9.371	1	0.72	1	1	7.0	4.2700000000000005	4.14	4.0200000000000005	24.89	16	0.0	0.0	0.0	-32640	0.0	0.0	0.1	0.21	-39.56	-0.002	0.0	-0.003	0	0	0	0	4.01	4.0200000000000005	4.14	4.16	4.17	4.19	24.1	23.6	24.200000000000003	0	0	0	0	0	150	0	0	22	23	16	17	1	1	1	1	1	1	0	0	1	1	1
0.0	0.0	0.0	-0.0027584	0.157	-0.022	-9.281	1	0.73	1	1	8.0	4.15	4.08	3.99	24.53	16	0.0	0.0	0.0	-32640	0.0	0.0	0.11	0.2	-39.57	0.0	-0.001	-0.004	0	0	0	0	4.0200000000000005	4.03	4.11	4.17	4.21	4.22	24.1	23.6	24.200000000000003	0	0	0	0	0	150	0	0	22	23	16	17	1	1	1	1	1	1	0	0	1	1	1
0.0	0.0	0.0	-0.002208	0.227	-0.001	-9.262	1	0.6900000000000001	1	1	7.0	4.17	4.09	4.01	24.560000000000002	16	0.0	0.0	0.0	-32640	0.0	0.0	0.12	0.2	-39.58	0.0	0.0	-0.003	0	0	0	0	4.0	4.0	4.0600000000000005	4.13	4.16	4.17	24.1	23.6	24.200000000000003	0	0	0	0	0	150	0	0	22	23	16	17	1	1	1	1	1	1	0	0	1	1	1
0.0	0.0	0.0	-0.002208	-0.201	-0.079	-9.387	0	0.68	1	1	7.0	4.15	4.08	4.0	24.490000000000002	16	0.0	0.0	0.0	128	0.0	0.0	0.11	0.2	-39.58	0.001	0.0	-0.003	0	0	0	0	4.01	4.03	4.15	4.22	4.21	4.17	24.1	23.6	24.200000000000003	0	0	0	0	0	150	0	0	22	23	16	17	1	1	1	1	1	1	0	0	1	1	1
0.0	0.0	0.0	-0.0013184	-0.127	-0.075	-9.401	0	0.7000000000000001	1	1	8.0	4.24	4.12	4.0200000000000005	24.740000000000002	16	0.0	0.0	0.0	-32640	0.0	0.0	0.1	0.2	-39.59	0.001	0.0	-0.003	0	0	0	0	4.03	4.03	4.1	4.16	4.2	4.18	24.1	23.5	24.1	0	0	0	0	0	150	0	0	22	23	16	17	1	1	1	0	1	1	0	0	1	1	1
0.0	0.0	0.0	0.0032384	0.088	-0.092	-9.379	0	0.71	1	1	7.0	4.3	4.15	4.0	24.93	16	0.0	0.0	0.0	-32640	0.0	0.0	0.11	0.21	-39.61	0.001	0.003	-0.006	0	0	0	0	4.03	4.01	4.08	4.15	4.16	4.21	24.1	23.6	24.200000000000003	0	0	0	0	0	150	0	0	22	23	16	17	1	1	1	1	1	1	0	0	1	1	1
0.0	0.0	0.0	0.0032384	0.224	-0.035	-9.327	0	0.7000000000000001	1	1	7.0	4.18	4.08	4.0	24.490000000000002	16	0.0	0.0	0.0	-32640	0.0	0.0	0.12	0.21	-39.62	-0.002	0.0	-0.005	0	0	0	0	4.0200000000000005	4.0	4.13	4.24	4.25	4.24	24.1	23.6	24.200000000000003	0	0	0	0	0	150	0	0	22	23	16	17	1	1	1	1	1	1	0	0	1	1	1
0.0	0.0	0.0	-0.0016512	0.061	-0.021	-9.351	0	0.6900000000000001	1	1	7.0	4.21	4.1	3.99	24.6	16	0.0	0.0	0.0	-32640	0.0	0.0	0.12	0.21	-39.62	-0.002	-0.001	-0.002	0	0	0	0	4.0	4.0	4.1	4.13	4.18	4.17	24.1	23.6	24.200000000000003	0	0	0	0	0	150	0	0	22	23	17	17	1	1	1	0	1	1	0	0	1	1	1
0.0	0.0	0.0	-0.0027584	0.002	-0.055	-9.359	0	0.7000000000000001	1	1	8.0	4.21	4.11	3.98	24.69	16	0.0	0.0	0.0	128	0.0	0.0	0.11	0.2	-39.62	-0.003	0.0	-0.001	0	0	0	0	4.01	3.99	4.1	4.0600000000000005	4.09	4.13	24.1	23.700000000000003	24.200000000000003	0	0	0	0	0	150	0	0	22	23	17	17	1	1	1	1	1	1	0	0	1	1	1
0.0	0.0	0.0	0.0032384	-0.122	-0.047	-9.385	0	0.68	1	1	7.0	4.16	4.08	3.99	24.53	16	0.0	0.0	0.0	128	0.0	0.0	0.11	0.2	-39.63	-0.001	0.0	-0.003	0	0	0	0	4.04	4.04	4.09	4.19	4.24	4.23	24.1	23.6	24.200000000000003	0	0	0	0	0	150	0	0	22	23	17	17	1	1	1	1	1	1	0	0	1	1	1
0.0	0.0	0.0	-0.0027584	0.021	-0.079	-9.413	0	0.7000000000000001	1	1	7.0	4.17	4.11	4.04	24.66	16	0.0	0.0	0.0	-32640	0.0	0.0	0.11	0.2	-39.64	0.0	0.001	-0.006	0	0	0	0	4.01	3.98	4.08	4.14	4.17	4.16	24.1	23.6	24.200000000000003	0	0	0	0	0	150	0	0	22	23	17	17	1	1	1	1	1	1	0	0	1	1	1
0.0	0.0	0.0	0.0032384	0.14200000000000002	-0.108	-9.384	0	0.7000000000000001	1	1	7.0	4.22	4.12	4.03	24.740000000000002	16	0.0	0.0	0.0	128	0.0	0.0	0.11	0.2	-39.65	0.003	-0.002	-0.006	0	0	0	0	4.0200000000000005	4.01	4.0600000000000005	4.08	4.16	4.14	24.1	23.6	24.1	0	0	0	0	0	150	0	0	22	23	17	17	1	1	1	1	1	1	0	0	1	1	1
0.0	0.0	0.0	-0.0013184	0.114	-0.095	-9.299	0	0.6900000000000001	1	1	7.0	4.19	4.1	4.01	24.650000000000002	16	0.0	0.0	0.0	128	0.0	0.0	0.11	0.2	-39.660000000000004	0.001	-0.004	-0.001	0	0	0	0	4.01	4.03	4.11	4.15	4.17	4.17	24.1	23.6	24.200000000000003	0	0	0	0	0	150	0	0	22	23	17	17	1	1	1	1	1	1	0	0	1	1	1
0.0	0.0	0.0	0.0017984	0.065	0.001	-9.327	0	0.71	1	1	7.0	4.18	4.09	4.01	24.560000000000002	16	0.0	0.0	0.0	128	0.0	0.0	0.11	0.2	-39.67	-0.001	-0.003	-0.002	0	0	0	0	4.01	4.01	4.1	4.11	4.17	4.15	24.1	23.700000000000003	24.200000000000003	0	0	0	0	0	150	0	0	22	23	17	17	1	1	1	1	1	1	0	0	1	1	1
0.0	0.0	0.0	0.0006848	-0.01	-0.088	-9.339	0	0.72	1	1	8.0	4.14	4.07	3.99	24.42	16	0.0	0.0	0.0	128	0.0	0.0	0.11	0.21	-39.67	0.0	0.0	-0.004	0	0	0	0	4.0600000000000005	4.05	4.08	4.12	4.18	4.21	24.1	23.6	24.200000000000003	0	0	0	0	0	150	0	0	22	23	17	17	1	1	1	1	1	1	0	0	1	1	1
0.0	0.0	0.0	0.0012416	0.021	-0.068	-9.384	0	0.6900000000000001	1	1	7.0	4.15	4.08	4.01	24.53	16	0.0	0.0	0.0	-32640	0.0	0.0	0.11	0.21	-39.68	-0.001	0.001	-0.004	0	0	0	0	4.0200000000000005	4.0	4.12	4.18	4.17	4.16	24.1	23.6	24.1	0	0	0	0	0	150	0	0	22	23	17	17	1	1	1	1	1	1	0	0	1	1	1
0.0	0.0	0.0	0.0012416	0.078	-0.047	-9.364	0	0.71	1	1	8.0	4.21	4.11	3.98	24.69	16	0.0	0.0	0.0	128	0.0	0.0	0.11	0.2	-39.69	0.0	0.0	-0.004	0	0	0	0	4.0200000000000005	4.0	4.15	4.15	4.14	4.17	24.1	23.6	24.1	0	0	0	0	0	150	0	0	22	23	18	17	1	1	1	1	1	1	0	0	1	1	1
0.0	0.0	0.0	0.0012416	0.028	-0.057	-9.313	0	0.71	1	1	7.0	4.16	4.09	4.0	24.54	16	0.0	0.0	0.0	128	0.0	0.0	0.11	0.2	-39.69	-0.001	0.0	-0.002	0	0	0	0	4.01	3.99	4.12	4.12	4.15	4.18	24.1	23.6	24.200000000000003	0	0	0	0	0	150	0	0	22	23	18	17	1	1	1	1	1	1	0	0	1	1	1
0.0	0.0	0.0	0.0006848	0.041	-0.015	-9.286	0	0.6900000000000001	1	1	8.0	4.16	4.08	3.99	24.53	16	0.0	0.0	0.0	128	0.0	0.0	0.11	0.19	-39.7	0.001	-0.003	-0.004	0	0	0	0	4.0200000000000005	3.99	4.08	4.14	4.16	4.13	24.1	23.6	24.1	0	0	0	0	0	150	0	0	22	23	18	17	1	1	1	1	1	1	0	0	1	1	1
0.0	0.0	0.0	-0.0007616	0.059000000000000004	-0.047	-9.298	0	0.7000000000000001	1	1	7.0	4.21	4.11	4.01	24.66	16	0.0	0.0	0.0	128	0.0	0.0	0.12	0.2	-39.71	0.001	-0.001	-0.003	0	0	0	0	4.01	4.05	4.1	4.14	4.19	4.17	24.1	23.6	24.200000000000003	0	0	0	0	0	150	0	0	22	23	18	17	1	1	1	1	1	1	0	0	1	1	1
0.0	0.0	0.0	0.0017984	0.035	-0.107	-9.38	0	0.7000000000000001	1	1	7.0	4.16	4.08	3.98	24.48	16	0.0	0.0	0.0	-32640	0.0	0.0	0.1	0.21	-39.730000000000004	0.002	0.0	-0.004	0	0	0	0	4.0200000000000005	4.03	4.11	4.13	4.16	4.17	24.1	23.6	24.200000000000003	0	0	0	0	0	150	0	0	22	23	18	17	1	1	1	1	1	1	0	0	1	1	1
0.0	0.0	0.0	0.0017984	-0.038	-0.088	-9.325000000000001	0	0.6900000000000001	1	1	7.0	4.2	4.11	4.03	24.69	16	0.0	0.0	0.0	-32640	0.0	0.0	0.11	0.2	-39.730000000000004	-0.001	0.0	-0.003	0	0	0	0	4.0	4.0200000000000005	4.08	4.14	4.15	4.17	24.1	23.700000000000003	24.200000000000003	0	0	0	0	0	150	0	0	22	23	18	17	1	1	1	1	1	1	0	0	1	1	1
0.0	0.0	0.0	0.0017984	-0.027	-0.048	-9.332	0	0.71	1	1	7.0	4.2	4.1	3.98	24.64	16	0.0	0.0	0.0	128	0.0	0.0	0.12	0.2	-39.74	0.0	-0.002	-0.004	0	0	0	0	4.01	4.0200000000000005	4.13	4.13	4.18	4.19	24.1	23.6	24.200000000000003	0	0	0	0	0	150	0	0	22	23	18	17	1	1	1	1	1	1	0	0	1	1	1
0.0	0.0	0.0	-0.0027584	0.121	0.014	-9.34	0	0.72	1	1	7.0	4.17	4.09	4.03	24.59	16	0.0	0.0	0.0	128	0.0	0.0	0.11	0.2	-39.75	0.0	0.0	-0.004	0	0	0	0	4.01	3.99	4.09	4.18	4.2	4.21	24.1	23.700000000000003	24.200000000000003	0	0	0	0	0	150	0	0	22	23	18	17	1	1	1	1	1	1	0	0	1	1	1
0.0	0.0	0.0	0.0023423999999999997	-0.062	-0.078	-9.323	0	0.72	1	1	7.0	4.15	4.08	4.0200000000000005	24.53	16	0.0	0.0	0.0	128	0.0	0.0	0.1	0.2	-39.75	0.001	-0.002	-0.004	0	0	0	0	4.0200000000000005	4.0200000000000005	4.11	4.16	4.16	4.15	24.1	23.700000000000003	24.200000000000003	0	0	0	0	0	150	0	0	22	23	16	16	1	1	1	1	1	1	0	0	1	1	1
0.0	0.0	0.0	0.0023423999999999997	-0.066	-0.051000000000000004	-9.319	0	0.71	1	1	7.0	4.23	4.11	4.01	24.67	16	0.0	0.0	0.0	-32640	0.0	0.0	0.1	0.2	-39.76	0.001	-0.001	-0.005	0	0	0	0	4.0	3.99	4.08	4.17	4.18	4.14	24.1	23.6	24.200000000000003	0	0	0	0	0	150	0	0	22	23	16	16	1	1	1	1	1	1	0	0	1	1	1
0.0	0.0	0.0	-0.00021119999999999998	0.038	-0.022	-9.35	0	0.7000000000000001	1	1	7.0	4.17	4.09	4.01	24.560000000000002	16	0.0	0.0	0.0	-32640	0.0	0.0	0.11	0.2	-39.77	0.001	0.002	-0.004	0	0	0	0	4.03	4.04	4.09	4.12	4.16	4.16	24.1	23.6	24.200000000000003	0	0	0	0	0	150	0	0	22	23	16	16	1	1	1	1	1	1	0	0	1	1	1
0.0	0.0	0.0	-0.0007616	0.021	0.001	-9.32	0	0.6900000000000001	1	1	7.0	4.26	4.13	4.0	24.8	16	0.0	0.0	0.0	128	0.0	0.0	0.11	0.21	-39.77	0.0	0.001	-0.005	0	0	0	0	4.0	4.0	4.1	4.15	4.15	4.17	24.1	23.6	24.200000000000003	0	0	0	0	0	150	0	0	22	23	16	16	1	1	1	1	1	1	0	0	1	1	1
0.0	0.0	0.0	-0.0007616	-0.028	-0.042	-9.307	0	0.71	1	1	7.0	4.21	4.11	3.99	24.67	16	0.0	0.0	0.0	128	0.0	0.0	0.11	0.21	-39.78	-0.001	-0.001	-0.003	0	0	0	0	4.01	4.0200000000000005	4.07	4.1	4.12	4.09	24.200000000000003	23.6	24.200000000000003	0	0	0	0	0	150	0	0	22	23	17	16	1	1	1	1	1	1	0	0	1	1	1
0.0	0.0	0.0	-0.0007616	-0.076	-0.058	-9.287	0	0.6900000000000001	1	1	7.0	4.12	4.07	3.98	24.44	16	0.0	0.0	0.0	-32640	0.0	0.0	0.11	0.21	-39.78	-0.002	0.0	-0.005	0	0	0	0	4.0600000000000005	4.05	4.1	4.21	4.22	4.21	24.1	23.700000000000003	24.200000000000003	0	0	0	0	0	150	0	0	22	23	17	16	1	1	1	1	1	1	0	0	1	1	1
0.0	0.0	0.0	0.0003456	0.046	0.013000000000000001	-9.34	0	0.71	1	1	7.0	4.22	4.12	4.01	24.72	16	0.0	0.0	0.0	-32640	0.0	0.0	0.11	0.21	-39.79	0.0	0.0	-0.007	0	0	0	0	4.0200000000000005	4.04	4.09	4.2	4.21	4.21	24.1	23.6	24.200000000000003	0	0	0	0	0	150	0	0	22	23	17	16	1	1	1	1	1	1	0	0	1	1	1
0.0	0.0	0.0	-0.00021119999999999998	0.005	-0.042	-9.296	0	0.71	1	1	7.0	4.25	4.14	4.03	24.88	16	0.0	0.0	0.0	-32640	0.0	0.0	0.11	0.2	-39.800000000000004	0.001	0.002	-0.003	0	0	0	0	4.09	4.0	4.09	4.22	4.2700000000000005	4.23	24.1	23.700000000000003	24.200000000000003	0	0	0	0	0	150	0	0	22	23	16	17	1	1	1	1	1	1	0	0	1	1	1
0.0	0.0	0.0	-0.00021119999999999998	-0.032	-0.06	-9.253	0	0.71	1	1	7.0	4.16	4.09	3.99	24.54	16	0.0	0.0	0.0	128	0.0	0.0	0.1	0.21	-39.81	0.001	0.0	-0.005	0	0	0	0	4.0	3.98	4.0600000000000005	4.17	4.19	4.14	24.1	23.700000000000003	24.200000000000003	0	0	0	0	0	150	0	0	22	23	16	17	1	1	1	1	1	1	0	0	1	1	1
0.0	0.0	0.0	-0.0007616	0.008	-0.07200000000000001	-9.297	0	0.68	1	1	7.0	4.2	4.11	3.99	24.67	16	0.0	0.0	0.0	128	0.0	0.0	0.1	0.21	-39.82	0.0	-0.002	-0.004	0	0	0	0	4.0600000000000005	3.99	4.05	4.16	4.23	4.2700000000000005	24.1	23.6	24.1	0	0	0	0	0	150	0	0	22	23	16	17	1	1	1	1	1	1	0	0	1	1	1
0.0	0.0	0.0	-0.0007616	0.019	0.0	-9.357	0	0.71	1	1	7.0	4.22	4.12	4.01	24.75	16	0.0	0.0	0.0	-32640	0.0	0.0	0.11	0.21	-39.83	0.0	0.0	-0.006	0	0	0	0	4.0	3.98	4.17	4.14	4.11	4.11	24.1	23.700000000000003	24.200000000000003	0	0	0	0	0	150	0	0	22	23	16	18	1	1	1	1	1	1	0	0	1	1	1
0.0	0.0	0.0	-0.0018687999999999999	-0.022	0.032	-9.332	0	0.71	1	1	8.0	4.19	4.1	4.0	24.62	16	0.0	0.0	0.0	-32640	0.0	0.0	0.11	0.21	-39.84	0.0	0.002	-0.004	0	0	0	0	4.01	4.08	4.16	4.2	4.21	4.2	24.1	23.700000000000003	24.200000000000003	0	0	0	0	0	150	0	0	22	23	16	18	1	1	1	1	1	1	0	0	1	1	1
0.0	0.0	0.0	0.0023423999999999997	-0.091	-0.018000000000000002	-9.323	0	0.7000000000000001	1	1	7.0	4.15	4.07	3.99	24.45	16	0.0	0.0	0.0	128	0.0	0.0	0.1	0.21	-39.84	-0.001	0.0	-0.004	0	0	0	0	4.0200000000000005	4.03	4.1	4.19	4.16	4.18	24.1	23.700000000000003	24.200000000000003	0	0	0	0	0	150	0	0	22	23	16	18	1	1	1	1	1	1	0	0	1	1	1
0.0	0.0	0.0	-0.002208	-0.036000000000000004	-0.022	-9.278	0	0.72	1	1	7.0	4.16	4.07	3.99	24.46	16	0.0	0.0	0.0	128	0.0	0.0	0.09	0.21	-39.85	0.0	0.0	-0.005	0	0	0	0	4.05	3.99	4.09	4.12	4.19	4.21	24.1	23.6	24.200000000000003	0	0	0	0	0	150	0	0	22	23	16	18	1	1	1	1	1	1	0	0	1	1	1
0.0	0.0	0.0	-0.002208	0.027	-0.019	-9.248	0	0.71	1	1	8.0	4.22	4.12	4.0200000000000005	24.75	16	0.0	0.0	0.0	128	0.0	0.0	0.1	0.21	-39.86	0.0	0.0	-0.005	0	0	0	0	4.0600000000000005	4.0600000000000005	4.07	4.11	4.16	4.17	24.1	23.6	24.1	0	0	0	0	0	150	0	0	22	23	16	19	1	1	1	1	1	1	0	0	1	1	1
0.0	0.0	0.0	-0.0017599999999999998	0.107	-0.054	-9.304	0	0.7000000000000001	1	1	7.0	4.18	4.08	3.99	24.52	16	0.0	0.0	0.0	128	0.0	0.0	0.1	0.21	-39.86	-0.001	0.0	-0.006	0	0	0	0	4.0600000000000005	4.0	4.14	4.14	4.2	4.17	24.1	23.5	24.200000000000003	0	0	0	0	0	150	0	0	22	23	16	19	1	1	1	1	1	1	0	0	1	1	1
0.0	0.0	0.0	-0.0017599999999999998	0.007	-0.012	-9.351	0	0.68	1	1	8.0	4.16	4.08	4.01	24.51	16	0.0	0.0	0.0	-32640	0.0	0.0	0.1	0.21	-39.88	0.0	0.001	-0.007	0	0	0	0	4.07	4.01	4.12	4.18	4.21	4.18	24.1	23.6	24.200000000000003	0	0	0	0	0	150	0	0	22	23	16	19	1	1	1	1	1	1	0	0	1	1	1
0.0	0.0	0.0	-0.00021119999999999998	-0.121	-0.046	-9.356	0	0.73	1	1	7.0	4.19	4.1	4.0	24.650000000000002	16	0.0	0.0	0.0	-32640	0.0	0.0	0.09	0.21	-39.89	0.0	0.0	-0.008	0	0	0	0	4.03	4.0200000000000005	4.0600000000000005	4.16	4.22	4.2	24.1	23.700000000000003	24.200000000000003	0	0	0	0	0	150	0	0	22	23	17	17	1	1	1	1	1	1	0	0	1	1	1
0.0	0.0	0.0	-0.002208	-0.052000000000000005	-0.055	-9.288	0	0.7000000000000001	1	1	7.0	4.16	4.08	3.99	24.51	16	0.0	0.0	0.0	128	0.0	0.0	0.1	0.21	-39.89	0.0	0.0	-0.004	0	0	0	0	4.0	3.98	4.1	4.14	4.14	4.15	24.1	23.6	24.200000000000003	0	0	0	0	0	150	0	0	22	23	17	17	1	1	1	1	1	1	0	0	1	1	1
0.0	0.0	0.0	0.0023423999999999997	0.018000000000000002	0.016	-9.364	0	0.7000000000000001	1	1	7.0	4.14	4.07	3.99	24.45	16	0.0	0.0	0.0	128	0.0	0.0	0.1	0.21	-39.9	-0.001	0.001	-0.005	0	0	0	0	4.0200000000000005	4.0200000000000005	4.12	4.15	4.18	4.21	24.1	23.6	24.200000000000003	0	0	0	0	0	150	0	0	22	23	17	17	1	1	1	1	1	1	0	0	1	1	1
0.0	0.0	0.0	0.0023423999999999997	-0.126	-0.014	-9.344	0	0.7000000000000001	1	1	7.0	4.16	4.09	4.0	24.57	16	0.0	0.0	0.0	128	0.0	0.0	0.11	0.21	-39.910000000000004	0.0	0.0	-0.004	0	0	0	0	4.0	3.98	4.08	4.12	4.11	4.14	24.1	23.6	24.200000000000003	0	0	0	0	0	150	0	0	22	23	17	17	1	1	1	1	1	1	0	0	1	1	1
0.0	0.0	0.0	0.0003456	-0.096	-0.041	-9.402000000000001	0	0.6900000000000001	1	1	7.0	4.17	4.08	4.0	24.5	16	0.0	0.0	0.0	-32640	0.0	0.0	0.1	0.2	-39.910000000000004	0.0	0.001	-0.007	0	0	0	0	4.01	4.0	4.08	4.15	4.18	4.19	24.1	23.6	24.1	0	0	0	0	0	150	0	0	22	23	16	18	1	1	1	1	1	1	0	0	1	1	1
0.0	0.0	0.0	-0.0017599999999999998	-0.008	-0.074	-9.288	0	0.6900000000000001	1	1	7.0	4.21	4.11	4.0	24.67	16	0.0	0.0	0.0	-32640	0.0	0.0	0.1	0.2	-39.92	0.0	0.001	-0.005	0	0	0	0	4.0	4.03	4.1	4.12	4.18	4.14	24.1	23.6	24.200000000000003	0	0	0	0	0	150	0	0	22	23	16	18	1	1	1	1	1	1	0	0	1	1	1
0.0	0.0	0.0	-0.0017599999999999998	0.09	0.025	-9.311	0	0.7000000000000001	1	1	7.0	4.22	4.11	4.0	24.7	16	0.0	0.0	0.0	128	0.0	0.0	0.1	0.21	-39.92	-0.002	0.0	-0.004	0	0	0	0	4.0200000000000005	4.04	4.14	4.17	4.16	4.19	24.1	23.6	24.1	0	0	0	0	0	150	0	0	22	23	16	18	1	1	1	1	1	1	0	0	1	1	1
0.0	0.0	0.0	-0.0017599999999999998	0.069	0.023	-9.312	0	0.71	1	1	7.0	4.2	4.11	4.0	24.69	16	0.0	0.0	0.0	-32640	0.0	0.0	0.1	0.21	-39.93	0.0	0.002	-0.003	0	0	0	0	4.0	4.0	4.03	4.11	4.11	4.12	24.1	23.6	24.1	0	0	0	0	0	150	0	0	22	23	16	18	1	1	1	1	1	1	0	0	1	1	1
0.0	0.0	0.0	-0.002208	-0.057	0.014	-9.326	0	0.6900000000000001	1	1	7.0	4.18	4.11	4.0	24.67	16	0.0	0.0	0.0	-32640	0.0	0.0	0.11	0.21	-39.94	-0.001	0.002	-0.006	0	0	0	0	4.01	4.01	4.0600000000000005	4.1	4.12	4.14	24.1	23.6	24.200000000000003	0	0	0	0	0	150	0	0	22	23	16	18	1	1	1	1	1	1	0	0	1	1	1
0.0	0.0	0.0	0.0007936	-0.064	-0.023	-9.381	0	0.72	1	1	7.0	4.19	4.1	4.0	24.63	16	0.0	0.0	0.0	-32640	0.0	0.0	0.11	0.21	-39.95	-0.001	0.002	-0.006	0	0	0	0	4.01	3.99	4.13	4.26	4.25	4.16	24.1	23.6	24.200000000000003	0	0	0	0	0	150	0	0	22	23	16	18	1	1	1	1	1	1	0	0	1	1	1
0.0	0.0	0.0	-0.002208	-0.014	-0.068	-9.377	0	0.71	1	1	7.0	4.17	4.1	4.04	24.650000000000002	16	0.0	0.0	0.0	128	0.0	0.0	0.1	0.21	-39.95	0.0	-0.002	-0.005	0	0	0	0	4.0200000000000005	3.99	4.09	4.07	4.11	4.12	24.1	23.700000000000003	24.200000000000003	0	0	0	0	0	150	0	0	22	23	16	18	1	1	1	1	1	1	0	0	1	1	1
0.0	0.0	0.0	0.00224	0.063	-0.046	-9.271	0	0.72	1	1	7.0	4.14	4.07	3.98	24.44	16	0.0	0.0	0.0	128	0.0	0.0	0.1	0.21	-39.95	0.0	0.0	-0.004	0	0	0	0	4.0	3.98	4.14	4.19	4.18	4.17	24.1	23.6	24.200000000000003	0	0	0	0	0	150	0	0	22	23	16	17	1	1	1	1	1	1	0	0	1	1	1
0.0	0.0	0.0	0.0027968	0.02	-0.036000000000000004	-9.352	0	0.72	1	1	7.0	4.22	4.12	3.99	24.72	16	0.0	0.0	0.0	-32640	0.0	0.0	0.11	0.21	-39.96	0.0	0.0	-0.004	0	0	0	0	4.01	4.01	4.12	4.14	4.15	4.13	24.1	23.6	24.200000000000003	0	0	0	0	0	150	0	0	22	23	16	17	1	1	1	1	1	1	0	0	1	1	1
0.0	0.0	0.0	-0.0017599999999999998	-0.006	-0.07200000000000001	-9.365	0	0.7000000000000001	1	1	7.0	4.17	4.09	4.0	24.59	16	0.0	0.0	0.0	-32640	0.0	0.0	0.11	0.21	-39.97	0.0	0.001	-0.007	0	0	0	0	4.05	3.99	4.12	4.17	4.18	4.23	24.1	23.6	24.200000000000003	0	0	0	0	0	150	0	0	22	23	16	17	1	1	1	1	1	1	0	0	1	1	1
0.0	0.0	0.0	0.0027968	0.017	-0.07	-9.407	0	0.72	1	1	7.0	4.13	4.08	4.0	24.53	16	0.0	0.0	0.0	-32640	0.0	0.0	0.11	0.21	-39.980000000000004	0.0	0.0	-0.008	0	0	0	0	4.03	4.01	4.14	4.21	4.15	4.16	24.1	23.6	24.200000000000003	0	0	0	0	0	150	0	0	22	23	16	17	1	1	1	1	1	1	0	0	1	1	1
0.0	0.0	0.0	0.0027968	0.026000000000000002	-0.026000000000000002	-9.344	0	0.7000000000000001	1	1	7.0	4.14	4.07	4.01	24.46	16	0.0	0.0	0.0	128	0.0	0.0	0.11	0.2	-39.980000000000004	0.0	0.0	-0.005	0	0	0	0	4.0200000000000005	4.01	4.1	4.15	4.19	4.2	24.1	23.6	24.1	0	0	0	0	0	150	0	0	22	23	16	17	1	1	1	1	1	1	0	0	1	1	1
0.0	0.0	0.0	0.0016895999999999999	0.01	-0.08700000000000001	-9.327	0	0.72	1	1	7.0	4.14	4.09	4.01	24.54	16	0.0	0.0	0.0	128	0.0	0.0	0.11	0.2	-39.99	-0.001	0.0	-0.004	0	0	0	0	4.01	4.01	4.07	4.12	4.13	4.12	24.1	23.6	24.200000000000003	0	0	0	0	0	150	0	0	22	23	16	17	1	1	1	1	1	1	0	0	1	1	1
0.0	0.0	0.0	-0.0017599999999999998	0.03	-0.032	-9.301	0	0.72	1	1	7.0	4.17	4.08	4.0	24.5	16	0.0	0.0	0.0	128	0.0	0.0	0.11	0.21	-40.0	0.002	0.0	-0.005	0	0	0	0	4.04	3.99	4.12	4.17	4.24	4.2	24.1	23.6	24.1	0	0	0	0	0	150	0	0	22	23	16	17	1	1	1	1	1	1	0	0	1	1	1
0.0	0.0	0.0	0.0027968	0.06	-0.024	-9.349	0	0.6900000000000001	1	1	7.0	4.17	4.1	4.0	24.650000000000002	16	0.0	0.0	0.0	-32640	0.0	0.0	0.1	0.21	-40.01	0.0	-0.002	-0.004	0	0	0	0	4.0600000000000005	4.01	4.07	4.14	4.19	4.17	24.1	23.6	24.200000000000003	0	0	0	0	0	150	0	0	22	23	16	17	1	1	1	1	1	1	0	0	1	1	1
0.0	0.0	0.0	0.00224	0.047	-0.044	-9.391	0	0.71	1	1	7.0	4.21	4.12	4.0200000000000005	24.72	16	0.0	0.0	0.0	-32640	0.0	0.0	0.11	0.2	-40.02	0.0	0.0	-0.006	0	0	0	0	4.04	3.99	4.09	4.16	4.18	4.17	24.1	23.6	24.200000000000003	0	0	0	0	0	150	0	0	22	23	16	18	1	1	1	1	1	1	0	0	1	1	1
0.0	0.0	0.0	0.0016895999999999999	0.044	-0.073	-9.39	0	0.7000000000000001	1	1	7.0	4.17	4.08	4.0	24.490000000000002	16	0.0	0.0	0.0	-32640	0.0	0.0	0.12	0.2	-40.02	-0.001	0.0	-0.003	0	0	0	0	4.04	3.99	4.11	4.14	4.18	4.18	24.1	23.6	24.200000000000003	0	0	0	0	0	150	0	0	22	23	15	17	1	1	1	1	1	1	0	0	1	1	1
0.0	0.0	0.0	0.0027968	-0.002	-0.112	-9.38	0	0.7000000000000001	1	1	7.0	4.18	4.1	3.98	24.6	16	0.0	0.0	0.0	128	0.0	0.0	0.12	0.2	-40.03	-0.001	-0.001	-0.003	0	0	0	0	4.0	3.99	4.12	4.19	4.18	4.17	24.1	23.6	24.200000000000003	0	0	0	0	0	150	0	0	22	23	15	17	1	1	1	1	1	1	0	0	1	1	1
0.0	0.0	0.0	0.0027968	0.013000000000000001	-0.033	-9.367	0	0.72	1	1	7.0	4.21	4.1	3.98	24.64	16	0.0	0.0	0.0	128	0.0	0.0	0.1	0.21	-40.04	0.0	0.001	-0.005	0	0	0	0	4.01	4.0	4.1	4.14	4.16	4.13	24.1	23.6	24.200000000000003	0	0	0	0	0	150	0	0	22	23	15	17	1	1	1	1	1	1	0	0	1	1	1
0.0	0.0	0.0	0.0027968	0.11	0.0	-9.351	0	0.71	1	1	7.0	4.25	4.13	4.0	24.78	16	0.0	0.0	0.0	-32640	0.0	0.0	0.11	0.21	-40.050000000000004	0.0	0.0	-0.004	0	0	0	0	4.01	4.0200000000000005	4.09	4.14	4.13	4.13	24.1	23.6	24.200000000000003	0	0	0	0	0	150	0	0	22	23	15	17	1	1	1	1	1	1	0	0	1	1	1
0.0	0.0	0.0	0.00023679999999999998	0.131	-0.03	-9.358	0	0.71	1	1	7.0	4.1	4.04	3.98	24.29	16	0.0	0.0	0.0	-32640	0.0	0.0	0.11	0.21	-40.050000000000004	0.0	-0.001	-0.004	0	0	0	0	4.04	4.0	4.09	4.19	4.23	4.2	24.1	23.6	24.200000000000003	0	0	0	0	0	150	0	0	22	23	17	17	1	1	1	1	1	1	0	0	1	1	1
0.0	0.0	0.0	0.00023679999999999998	0.028	-0.07	-9.394	0	0.7000000000000001	1	1	8.0	4.19	4.08	3.98	24.51	16	0.0	0.0	0.0	128	0.0	0.0	0.11	0.21	-40.07	0.001	0.001	-0.002	0	0	0	0	4.04	3.98	4.0600000000000005	4.08	4.11	4.1	24.1	23.6	24.200000000000003	0	0	0	0	0	150	0	0	22	23	17	17	1	1	1	1	1	1	0	0	1	1	1
0.0	0.0	0.0	-0.00031999999999999997	-0.023	-0.108	-9.361	0	0.73	1	1	7.0	4.16	4.09	3.99	24.54	16	0.0	0.0	0.0	128	0.0	0.0	0.11	0.21	-40.07	0.0	-0.003	-0.002	0	0	0	0	4.0200000000000005	3.99	4.09	4.11	4.16	4.14	24.1	23.6	24.200000000000003	0	0	0	0	0	150	0	0	22	23	17	17	1	1	1	1	1	1	0	0	1	1	1
0.0	0.0	0.0	0.00023679999999999998	0.0	-0.117	-9.353	0	0.71	1	1	8.0	4.16	4.08	4.0	24.490000000000002	16	0.0	0.0	0.0	-32640	0.0	0.0	0.11	0.21	-40.09	0.0	0.001	-0.005	0	0	0	0	4.01	3.98	4.08	4.14	4.17	4.13	24.1	23.6	24.1	0	0	0	0	0	150	0	0	22	23	17	17	1	1	1	1	1	1	0	0	1	1	1
0.0	0.0	0.0	0.001344	0.126	-0.085	-9.3	0	0.7000000000000001	1	1	7.0	4.19	4.09	4.05	24.59	16	0.0	0.0	0.0	-32640	0.0	0.0	0.12	0.2	-40.1	0.0	0.0	-0.006	0	0	0	0	4.01	3.99	4.1	4.2	4.24	4.21	24.1	23.6	24.200000000000003	0	0	0	0	0	150	0	0	22	23	18	17	1	1	1	1	1	1	0	0	1	1	1
0.0	0.0	0.0	0.0007936	0.146	-0.005	-9.304	0	0.71	1	1	7.0	4.21	4.1	3.98	24.6	16	0.0	0.0	0.0	128	0.0	0.0	0.11	0.21	-40.11	0.0	0.0	-0.003	0	0	0	0	4.01	3.99	4.0600000000000005	4.12	4.15	4.16	24.1	23.6	24.200000000000003	0	0	0	0	0	150	0	0	22	23	18	17	1	1	1	1	1	1	0	0	1	1	1
0.0	0.0	0.0	0.00023679999999999998	0.074	-0.019	-9.303	0	0.71	1	1	7.0	4.23	4.11	4.01	24.71	16	0.0	0.0	0.0	128	0.0	0.0	0.12	0.21	-40.14	0.0	-0.002	-0.003	0	0	0	0	4.03	4.01	4.0600000000000005	4.13	4.15	4.1	24.1	23.5	24.1	0	0	0	0	0	150	0	0	22	23	18	17	1	1	1	1	1	1	0	0	1	1	1
0.0	0.0	0.0	0.00023679999999999998	-0.046	-0.08	-9.348	0	0.72	1	1	7.0	4.19	4.11	4.0	24.7	16	0.0	0.0	0.0	-32640	0.0	0.0	0.11	0.21	-40.15	0.0	-0.003	-0.001	0	0	0	0	4.0	4.0200000000000005	4.07	4.12	4.1	4.09	24.1	23.6	24.200000000000003	0	0	0	0	0	150	0	0	22	23	17	17	1	1	1	1	1	1	0	0	1	1	1
0.0	0.0	0.0	0.00023679999999999998	0.051000000000000004	-0.068	-9.337	0	0.6900000000000001	1	1	7.0	4.19	4.1	4.0	24.6	16	0.0	0.0	0.0	-32640	0.0	0.0	0.11	0.21	-40.15	0.002	0.0	-0.004	0	0	0	0	4.08	4.03	4.12	4.19	4.21	4.22	24.1	23.6	24.1	0	0	0	0	0	150	0	0	22	23	17	17	1	1	1	1	1	1	0	0	1	1	1
0.0	0.0	0.0	0.0007936	0.113	-0.049	-9.290000000000001	0	0.72	1	1	7.0	4.2	4.12	3.99	24.72	16	0.0	0.0	0.0	128	0.0	0.0	0.11	0.21	-40.17	0.001	0.0	-0.005	0	0	0	0	4.0200000000000005	4.03	4.1	4.1	4.14	4.14	24.1	23.6	24.200000000000003	0	0	0	0	0	150	0	0	22	23	17	17	1	1	1	1	1	1	0	0	1	1	1
0.0	0.0	0.0	0.0011328	0.11800000000000001	-0.046	-9.316	0	0.72	1	1	7.0	4.16	4.09	4.0200000000000005	24.580000000000002	16	0.0	0.0	0.0	-32640	0.0	0.0	0.11	0.21	-40.17	0.001	-0.002	-0.005	0	0	0	0	4.01	4.01	4.12	4.18	4.19	4.19	24.1	23.6	24.200000000000003	0	0	0	0	0	150	0	0	22	23	17	17	1	1	1	1	1	1	0	0	1	1	1
0.0	0.0	0.0	0.00224	0.026000000000000002	-0.033	-9.348	0	0.71	1	1	7.0	4.23	4.1	3.99	24.63	16	0.0	0.0	0.0	-32640	0.0	0.0	0.11	0.22	-40.18	0.001	-0.002	-0.003	0	0	0	0	4.01	4.05	4.09	4.13	4.17	4.2	24.1	23.5	24.200000000000003	0	0	0	0	0	150	0	0	22	23	17	17	1	1	1	1	1	1	0	0	1	1	1
0.0	0.0	0.0	-0.0023168	-0.042	-0.096	-9.393	0	0.6900000000000001	1	1	8.0	4.22	4.11	4.01	24.69	16	0.0	0.0	0.0	-32640	0.0	0.0	0.11	0.22	-40.18	0.0	0.0	-0.005	0	0	0	0	4.0	4.0200000000000005	4.12	4.12	4.13	4.13	24.1	23.6	24.200000000000003	0	0	0	0	0	150	0	0	22	23	17	17	1	1	1	1	1	1	0	0	1	1	1
0.0	0.0	0.0	-0.0023168	-0.007	-0.035	-9.377	0	0.7000000000000001	1	1	7.0	4.25	4.12	4.0	24.77	16	0.0	0.0	0.0	128	0.0	0.0	0.11	0.21	-40.2	-0.001	0.002	-0.004	0	0	0	0	4.04	4.0	4.08	4.1	4.14	4.14	24.1	23.6	24.200000000000003	0	0	0	0	0	150	0	0	22	23	17	17	1	1	1	1	1	1	0	0	1	1	1
0.0	0.0	0.0	-0.0023168	0.036000000000000004	-0.046	-9.385	0	0.71	1	1	7.0	4.2	4.1	3.99	24.62	16	0.0	0.0	0.0	-32640	0.0	0.0	0.12	0.21	-40.21	0.0	-0.001	-0.005	0	0	0	0	4.01	4.01	4.09	4.21	4.22	4.24	24.1	23.700000000000003	24.200000000000003	0	0	0	0	0	150	0	0	22	23	17	17	1	1	1	1	1	1	0	0	1	1	1
0.0	0.0	0.0	-0.0023168	0.053	-0.049	-9.248	0	0.7000000000000001	1	1	7.0	4.2	4.1	3.99	24.63	16	0.0	0.0	0.0	-32640	0.0	0.0	0.11	0.21	-40.22	0.0	-0.001	-0.003	0	0	0	0	4.01	4.01	4.13	4.13	4.14	4.17	24.1	23.6	24.200000000000003	0	0	0	0	0	150	0	0	22	23	18	17	1	1	1	1	1	1	0	0	1	1	1
0.0	0.0	0.0	-0.0023168	-0.023	-0.062	-9.384	0	0.7000000000000001	1	1	7.0	4.14	4.09	4.0200000000000005	24.55	16	0.0	0.0	0.0	128	0.0	0.0	0.11	0.21	-40.230000000000004	0.0	0.0	-0.003	0	0	0	0	4.05	4.03	4.12	4.18	4.2	4.2	24.1	23.700000000000003	24.200000000000003	0	0	0	0	0	150	0	0	22	23	18	17	1	1	1	1	1	1	0	0	1	1	1
0.0	0.0	0.0	-0.0012096	-0.04	-0.07200000000000001	-9.405	0	0.71	1	1	7.0	4.22	4.11	3.98	24.67	16	0.0	0.0	0.0	128	0.0	0.0	0.11	0.21	-40.24	0.001	0.001	-0.006	0	0	0	0	4.03	4.0200000000000005	4.11	4.23	4.21	4.14	24.1	23.6	24.200000000000003	0	0	0	0	0	150	0	0	22	23	18	17	1	1	1	1	1	1	0	0	1	1	1
0.0	0.0	0.0	-0.0012096	0.011	-0.026000000000000002	-9.290000000000001	0	0.72	1	1	7.0	4.13	4.07	4.01	24.44	16	0.0	0.0	0.0	-32640	0.0	0.0	0.12	0.21	-40.24	0.0	0.002	-0.004	0	0	0	0	4.01	4.0	4.14	4.16	4.17	4.15	24.1	23.700000000000003	24.200000000000003	0	0	0	0	0	150	0	0	22	23	18	17	1	1	1	1	1	1	0	0	1	1	1
0.0	0.0	0.0	-0.0023168	0.078	-0.02	-9.288	0	0.7000000000000001	1	1	7.0	4.21	4.11	4.0	24.68	16	0.0	0.0	0.0	-32640	0.0	0.0	0.11	0.21	-40.25	0.0	0.0	-0.006	0	0	0	0	4.0600000000000005	4.01	4.1	4.14	4.18	4.19	24.1	23.6	24.200000000000003	0	0	0	0	0	150	0	0	22	23	18	18	1	1	1	1	1	1	0	0	1	1	1
0.0	0.0	0.0	-0.0012096	0.07200000000000001	-0.024	-9.33	0	0.71	1	1	7.0	4.22	4.11	3.99	24.69	16	0.0	0.0	0.0	-32640	0.0	0.0	0.11	0.21	-40.26	0.0	0.001	-0.006	0	0	0	0	4.03	3.99	4.11	4.19	4.14	4.16	24.1	23.6	24.200000000000003	0	0	0	0	0	150	0	0	22	23	18	18	1	1	1	1	1	1	0	0	1	1	1
0.0	0.0	0.0	-0.0012096	-0.043000000000000003	-0.05	-9.362	0	0.7000000000000001	1	1	7.0	4.17	4.09	3.99	24.59	16	0.0	0.0	0.0	128	0.0	0.0	0.12	0.2	-40.27	-0.001	0.001	-0.005	0	0	0	0	4.0	4.0200000000000005	4.09	4.17	4.18	4.15	24.1	23.6	24.200000000000003	0	0	0	0	0	150	0	0	22	23	18	18	1	1	1	1	1	1	0	0	1	1	1
0.0	0.0	0.0	0.0032384	-0.026000000000000002	0.002	-9.301	0	0.71	1	1	7.0	4.15	4.08	3.98	24.5	16	0.0	0.0	0.0	-32640	0.0	0.0	0.12	0.2	-40.28	0.0	0.0	-0.004	0	0	0	0	4.0600000000000005	4.0	4.11	4.14	4.17	4.22	24.1	23.700000000000003	24.1	0	0	0	0	0	150	0	0	22	23	17	17	1	1	1	1	1	1	0	0	1	1	1
0.0	0.0	0.0	0.0032384	0.041	-0.003	-9.294	0	0.71	1	1	7.0	4.15	4.08	4.0	24.53	16	0.0	0.0	0.0	-32640	0.0	0.0	0.12	0.2	-40.29	-0.001	0.0	-0.005	0	0	0	0	3.99	4.0200000000000005	4.07	4.11	4.17	4.16	24.1	23.700000000000003	24.200000000000003	0	0	0	0	0	150	0	0	22	23	17	17	1	1	1	1	1	1	0	0	1	1	1
0.0	0.0	0.0	0.0027968	0.073	-0.007	-9.284	0	0.71	1	1	7.0	4.21	4.11	4.0	24.7	16	0.0	0.0	0.0	128	0.0	0.0	0.12	0.2	-40.29	0.0	0.0	-0.004	0	0	0	0	4.03	4.05	4.15	4.15	4.2	4.19	24.1	23.6	24.200000000000003	0	0	0	0	0	150	0	0	22	23	17	17	1	1	1	1	1	1	0	0	1	1	1
0.0	0.0	0.0	-0.0026496	0.0	-0.025	-9.337	0	0.71	1	1	7.0	4.22	4.13	4.0	24.78	16	0.0	0.0	0.0	128	0.0	0.0	0.12	0.2	-40.300000000000004	-0.001	0.001	-0.007	0	0	0	0	4.1	3.98	4.09	4.23	4.23	4.23	24.1	23.6	24.200000000000003	0	0	0	0	0	150	0	0	22	23	19	17	1	1	1	1	1	1	0	0	1	1	1
0.0	0.0	0.0	0.002688	-0.09	-0.046	-9.368	0	0.7000000000000001	1	1	7.0	4.17	4.09	4.0	24.59	16	0.0	0.0	0.0	-32640	0.0	0.0	0.13	0.2	-40.31	0.0	0.003	-0.006	0	0	0	0	4.01	3.99	4.11	4.24	4.28	4.17	24.1	23.6	24.200000000000003	0	0	0	0	0	150	0	0	22	23	19	17	1	1	1	1	1	1	0	0	1	1	1
0.0	0.0	0.0	0.0007936	0.012	-0.015	-9.302	0	0.71	1	1	7.0	4.12	4.07	4.0	24.44	16	0.0	0.0	0.0	128	0.0	0.0	0.13	0.2	-40.31	0.0	0.002	-0.007	0	0	0	0	4.01	4.01	4.1	4.19	4.16	4.15	24.1	23.6	24.200000000000003	0	0	0	0	0	150	0	0	22	23	19	17	1	1	1	1	1	1	0	0	1	1	1
0.0	0.0	0.0	0.0027968	0.065	0.002	-9.306000000000001	0	0.7000000000000001	1	1	7.0	4.22	4.1	4.0	24.61	16	0.0	0.0	0.0	-32640	0.0	0.0	0.13	0.19	-40.33	-0.001	0.003	-0.006	0	0	0	0	4.05	4.01	4.09	4.17	4.19	4.16	24.1	23.6	24.1	0	0	0	0	0	150	0	0	22	23	19	17	1	1	1	1	1	1	0	0	1	1	1
0.0	0.0	0.0	0.0027968	0.027	-0.008	-9.298	0	0.7000000000000001	1	1	7.0	4.13	4.0600000000000005	3.98	24.39	16	0.0	0.0	0.0	-32640	0.0	0.0	0.13	0.19	-40.33	-0.001	0.0	-0.006	0	0	0	0	4.04	4.01	4.11	4.17	4.17	4.16	24.1	23.6	24.200000000000003	0	0	0	0	0	150	0	0	22	23	18	17	1	1	1	1	1	1	0	0	1	1	1
0.0	0.0	0.0	0.0006848	-0.023	0.003	-9.337	0	0.7000000000000001	1	1	7.0	4.26	4.12	3.99	24.72	16	0.0	0.0	0.0	-32640	0.0	0.0	0.13	0.2	-40.34	0.001	0.002	-0.005	0	0	0	0	4.0200000000000005	4.01	4.17	4.15	4.22	4.18	24.1	23.6	24.200000000000003	0	0	0	0	0	150	0	0	22	23	18	17	1	1	1	1	1	1	0	0	1	1	1
0.0	0.0	0.0	0.0032384	-0.076	-0.03	-9.372	0	0.7000000000000001	1	1	8.0	4.19	4.1	4.0	24.63	16	0.0	0.0	0.0	128	0.0	0.0	0.13	0.2	-40.34	0.002	0.001	-0.006	0	0	0	0	4.04	4.0	4.1	4.23	4.21	4.18	24.1	23.6	24.200000000000003	0	0	0	0	0	150	0	0	22	23	18	17	1	1	1	1	1	1	0	0	1	1	1
0.0	0.0	0.0	0.0027968	0.044	0.013000000000000001	-9.326	0	0.71	1	1	7.0	4.18	4.1	4.0200000000000005	24.6	16	0.0	0.0	0.0	-32640	0.0	0.0	0.12	0.2	-40.35	0.0	-0.001	-0.006	0	0	0	0	4.0	4.0	4.09	4.12	4.11	4.1	24.1	23.6	24.200000000000003	0	0	0	0	0	150	0	0	22	23	18	17	1	1	1	1	1	1	0	0	1	1	1
0.0	0.0	0.0	-0.0007616	0.014	0.006	-9.283	0	0.71	1	1	7.0	4.2	4.1	4.01	24.62	16	0.0	0.0	0.0	-32640	0.0	0.0	0.13	0.2	-40.36	0.0	0.0	-0.005	0	0	0	0	4.05	3.98	4.0600000000000005	4.14	4.17	4.16	24.1	23.6	24.200000000000003	0	0	0	0	0	150	0	0	22	23	15	17	1	1	1	1	1	1	0	0	1	1	1
0.0	0.0	0.0	0.0027968	0.018000000000000002	-0.003	-9.362	0	0.7000000000000001	1	1	7.0	4.22	4.13	4.0200000000000005	24.810000000000002	16	0.0	0.0	0.0	128	0.0	0.0	0.13	0.2	-40.37	0.0	0.0	-0.007	0	0	0	0	4.05	4.0	4.16	4.18	4.21	4.16	24.1	23.6	24.200000000000003	0	0	0	0	0	150	0	0	22	23	15	17	1	1	1	1	1	1	0	0	1	1	1
0.0	0.0	0.0	0.0027968	0.012	-0.013000000000000001	-9.343	0	0.72	1	1	7.0	4.19	4.1	4.0	24.64	16	0.0	0.0	0.0	128	0.0	0.0	0.13	0.2	-40.37	0.0	0.0	-0.004	0	0	0	0	4.0	4.0600000000000005	4.14	4.17	4.21	4.21	24.1	23.6	24.200000000000003	0	0	0	0	0	150	0	0	22	23	15	17	1	1	1	1	1	1	0	0	1	1	1
0.0	0.0	0.0	0.0012416	0.006	0.045	-9.33	0	0.7000000000000001	1	1	7.0	4.16	4.09	4.0	24.55	16	0.0	0.0	0.0	128	0.0	0.0	0.12	0.21	-40.44	-0.001	0.0	-0.003	0	0	0	0	4.03	4.0	4.11	4.17	4.15	4.19	24.1	23.6	24.200000000000003	0	0	0	0	0	150	0	0	22	23	15	17	1	1	1	1	1	1	0	0	1	1	1
0.0	0.0	0.0	0.0017984	0.008	-0.019	-9.329	0	0.72	1	1	7.0	4.2	4.11	3.99	24.69	16	0.0	0.0	0.0	-32640	0.0	0.0	0.12	0.21	-40.45	0.0	0.0	-0.005	0	0	0	0	4.04	4.0200000000000005	4.08	4.12	4.19	4.18	24.0	23.6	24.200000000000003	0	0	0	0	0	150	0	0	22	23	16	18	1	1	1	1	1	1	0	0	1	1	1
0.0	0.0	0.0	0.0012416	0.068	-0.021	-9.35	0	0.7000000000000001	1	1	7.0	4.19	4.11	4.04	24.68	16	0.0	0.0	0.0	-32640	0.0	0.0	0.13	0.21	-40.45	0.0	-0.001	-0.003	0	0	0	0	4.03	4.0200000000000005	4.09	4.18	4.21	4.2	24.1	23.6	24.200000000000003	0	0	0	0	0	150	0	0	22	23	16	18	1	1	1	1	1	1	0	0	1	1	1
0.0	0.0	0.0	-0.002208	0.023	-0.022	-9.355	0	0.71	1	1	8.0	4.23	4.13	4.0	24.79	16	0.0	0.0	0.0	128	0.0	0.0	0.13	0.2	-40.46	0.0	0.0	-0.003	0	0	0	0	4.01	4.01	4.08	4.13	4.16	4.15	24.1	23.6	24.200000000000003	0	0	0	0	0	150	0	0	22	23	16	18	1	1	1	1	1	1	0	0	1	1	1
0.0	0.0	0.0	0.0012416	-0.054	-0.058	-9.345	0	0.73	1	1	7.0	4.2	4.1	4.0200000000000005	24.6	16	0.0	0.0	0.0	128	0.0	0.0	0.12	0.2	-40.46	0.001	-0.001	-0.004	0	0	0	0	4.01	3.99	4.11	4.14	4.16	4.16	24.1	23.6	24.200000000000003	0	0	0	0	0	150	0	0	22	23	16	18	1	1	1	1	1	1	0	0	1	1	1
0.0	0.0	0.0	0.0012416	-0.012	-0.064	-9.348	0	0.7000000000000001	1	1	7.0	4.23	4.11	3.98	24.68	16	0.0	0.0	0.0	-32640	0.0	0.0	0.13	0.2	-40.47	0.001	-0.001	-0.005	0	0	0	0	4.0	4.0200000000000005	4.07	4.17	4.23	4.2	24.1	23.700000000000003	24.200000000000003	0	0	0	0	0	150	0	0	22	23	15	17	1	1	1	1	1	1	0	0	1	1	1
0.0	0.0	0.0	0.0012416	0.092	-0.03	-9.345	0	0.71	1	1	7.0	4.16	4.08	4.01	24.53	16	0.0	0.0	0.0	-32640	0.0	0.0	0.13	0.2	-40.480000000000004	0.001	-0.003	-0.003	0	0	0	0	4.05	4.01	4.1	4.16	4.19	4.18	24.1	23.700000000000003	24.200000000000003	0	0	0	0	0	150	0	0	22	23	15	17	1	1	1	1	1	1	0	0	1	1	1
0.0	0.0	0.0	0.0012416	0.045	-0.031	-9.341000000000001	0	0.73	1	1	7.0	4.24	4.12	3.99	24.740000000000002	16	0.0	0.0	0.0	-32640	0.0	0.0	0.13	0.2	-40.49	0.001	-0.002	-0.002	0	0	0	0	4.0	4.0	4.08	4.14	4.16	4.16	24.1	23.700000000000003	24.200000000000003	0	0	0	0	0	150	0	0	22	23	15	17	1	1	1	1	1	1	0	0	1	1	1
0.0	0.0	0.0	-0.00021119999999999998	-0.026000000000000002	-0.052000000000000005	-9.368	0	0.72	1	1	7.0	4.13	4.07	3.99	24.46	16	0.0	0.0	0.0	128	0.0	0.0	0.12	0.2	-40.49	0.001	0.0	-0.002	0	0	0	0	4.03	3.98	4.1	4.23	4.22	4.16	24.1	23.6	24.200000000000003	0	0	0	0	0	150	0	0	22	23	15	17	1	1	1	1	1	1	0	0	1	1	1
0.0	0.0	0.0	-0.0032064	0.039	-0.067	-9.38	0	0.7000000000000001	1	1	7.0	4.17	4.09	4.0	24.560000000000002	16	0.0	0.0	0.0	128	0.0	0.0	0.12	0.21	-40.5	0.0	-0.001	-0.004	0	0	0	0	4.0	4.0200000000000005	4.13	4.16	4.14	4.14	24.1	23.6	24.200000000000003	0	0	0	0	0	150	0	0	22	23	17	17	1	1	1	1	1	1	0	0	1	1	1
0.0	0.0	0.0	0.0017984	0.074	-0.097	-9.372	0	0.6900000000000001	1	1	7.0	4.11	4.05	4.0	24.35	16	0.0	0.0	0.0	-32640	0.0	0.0	0.12	0.21	-40.51	0.001	0.0	-0.004	0	0	0	0	4.05	4.09	4.09	4.12	4.16	4.17	24.1	23.6	24.200000000000003	0	0	0	0	0	150	0	0	22	23	17	17	1	1	1	1	1	1	0	0	1	1	1
0.0	0.0	0.0	0.0023423999999999997	0.042	-0.084	-9.338000000000001	0	0.7000000000000001	1	1	7.0	4.2	4.08	3.99	24.53	16	0.0	0.0	0.0	-32640	0.0	0.0	0.12	0.21	-40.51	0.0	-0.002	-0.004	0	0	0	0	4.01	4.0	4.1	4.16	4.16	4.15	24.1	23.6	24.200000000000003	0	0	0	0	0	150	0	0	22	23	17	17	1	1	1	1	1	1	0	0	1	1	1
0.0	0.0	0.0	-0.002208	0.033	-0.025	-9.313	0	0.7000000000000001	1	1	7.0	4.19	4.11	4.01	24.7	16	0.0	0.0	0.0	-32640	0.0	0.0	0.12	0.21	-40.52	0.0	-0.001	-0.003	0	0	0	0	4.0200000000000005	3.99	4.11	4.18	4.17	4.19	24.1	23.6	24.200000000000003	0	0	0	0	0	150	0	0	22	23	17	17	1	1	1	1	1	1	0	0	1	1	1
0.0	0.0	0.0	0.0023423999999999997	0.051000000000000004	-0.058	-9.334	0	0.72	1	1	7.0	4.17	4.11	4.03	24.66	16	0.0	0.0	0.0	128	0.0	0.0	0.12	0.21	-40.52	0.0	-0.001	-0.004	0	0	0	0	4.0200000000000005	3.99	4.08	4.18	4.18	4.17	24.1	23.6	24.200000000000003	0	0	0	0	0	150	0	0	22	23	17	17	1	1	1	1	1	1	0	0	1	1	1
0.0	0.0	0.0	-0.0013184	0.059000000000000004	-0.08	-9.36	0	0.7000000000000001	1	1	7.0	4.18	4.09	3.99	24.57	16	0.0	0.0	0.0	128	0.0	0.0	0.12	0.21	-40.53	0.001	0.0	-0.004	0	0	0	0	4.0	3.99	4.08	4.14	4.16	4.18	24.1	23.6	24.200000000000003	0	0	0	0	0	150	0	0	22	23	17	17	1	1	1	1	1	1	0	0	1	1	1
0.0	0.0	0.0	0.0012416	0.06	-0.057	-9.306000000000001	0	0.71	1	1	7.0	4.13	4.07	3.98	24.44	16	0.0	0.0	0.0	128	0.0	0.0	0.12	0.21	-40.53	0.002	0.0	-0.002	0	0	0	0	4.01	4.04	4.13	4.12	4.15	4.15	24.1	23.6	24.200000000000003	0	0	0	0	0	150	0	0	22	23	17	17	1	1	1	1	1	1	0	0	1	1	1
0.0	0.0	0.0	-0.0013184	0.043000000000000003	-0.053	-9.335	0	0.7000000000000001	1	1	7.0	4.17	4.08	4.0200000000000005	24.52	16	0.0	0.0	0.0	-32640	0.0	0.0	0.12	0.21	-40.550000000000004	0.001	-0.002	-0.004	0	0	0	0	4.04	4.0	4.0600000000000005	4.08	4.14	4.13	24.1	23.700000000000003	24.200000000000003	0	0	0	0	0	150	0	0	22	23	17	17	1	1	1	1	1	1	0	0	1	1	1
0.0	0.0	0.0	0.0017984	-0.007	-0.02	-9.312	0	0.72	1	1	7.0	4.16	4.07	4.0	24.46	16	0.0	0.0	0.0	-32640	0.0	0.0	0.12	0.21	-40.550000000000004	0.0	-0.001	-0.005	0	0	0	0	4.01	3.98	4.07	4.09	4.11	4.16	24.1	23.700000000000003	24.200000000000003	0	0	0	0	0	150	0	0	22	23	15	17	1	1	1	1	1	1	0	0	1	1	1
0.0	0.0	0.0	-0.0007616	0.032	-0.021	-9.348	0	0.73	1	1	7.0	4.17	4.09	3.99	24.59	16	0.0	0.0	0.0	128	0.0	0.0	0.12	0.22	-40.56	0.0	0.001	-0.004	0	0	0	0	4.0200000000000005	3.99	4.08	4.15	4.16	4.13	24.1	23.6	24.200000000000003	0	0	0	0	0	150	0	0	22	23	15	17	1	1	1	1	1	1	0	0	1	1	1
0.0	0.0	0.0	0.0012416	0.056	-0.075	-9.366	0	0.71	1	1	7.0	4.16	4.08	4.0	24.490000000000002	16	0.0	0.0	0.0	128	0.0	0.0	0.11	0.22	-40.56	0.0	0.0	-0.005	0	0	0	0	4.03	4.0	4.07	4.12	4.14	4.12	24.1	23.6	24.200000000000003	0	0	0	0	0	150	0	0	22	23	15	17	1	1	1	1	1	1	0	0	1	1	1
0.0	0.0	0.0	0.0009023999999999999	0.033	-0.059000000000000004	-9.38	0	0.71	1	1	7.0	4.22	4.12	4.0	24.77	16	0.0	0.0	0.0	-32640	0.0	0.0	0.11	0.22	-40.57	-0.001	0.0	-0.005	0	0	0	0	4.0	3.99	4.09	4.13	4.14	4.16	24.1	23.6	24.200000000000003	0	0	0	0	0	150	0	0	22	23	15	17	1	1	1	1	1	1	0	0	1	1	1
0.0	0.0	0.0	-0.0013184	0.012	-0.075	-9.349	0	0.71	1	1	7.0	4.2700000000000005	4.12	3.99	24.75	16	0.0	0.0	0.0	-32640	0.0	0.0	0.12	0.22	-40.58	-0.001	0.0	-0.004	0	0	0	0	4.03	4.0200000000000005	4.08	4.11	4.13	4.18	24.1	23.6	24.200000000000003	0	0	0	0	0	150	0	0	22	23	15	17	1	1	1	1	1	1	0	0	1	1	1
0.0	0.0	0.0	-0.00021119999999999998	0.016	-0.031	-9.274000000000001	0	0.7000000000000001	1	1	7.0	4.16	4.09	4.0	24.580000000000002	16	0.0	0.0	0.0	128	0.0	0.0	0.12	0.21	-40.59	0.0	0.002	-0.004	0	0	0	0	4.0	3.98	4.12	4.11	4.12	4.15	24.1	23.6	24.200000000000003	0	0	0	0	0	150	0	0	22	23	15	17	1	1	1	1	1	1	0	0	1	1	1
0.0	0.0	0.0	-0.0013184	0.055	-0.029	-9.33	0	0.7000000000000001	1	1	7.0	4.22	4.12	4.01	24.76	16	0.0	0.0	0.0	128	0.0	0.0	0.12	0.22	-40.59	0.0	-0.001	-0.003	0	0	0	0	4.08	3.99	4.08	4.14	4.23	4.22	24.1	23.6	24.200000000000003	0	0	0	0	0	150	0	0	22	23	15	17	1	1	1	1	1	1	0	0	1	1	1
0.0	0.0	0.0	-0.0013184	0.028	0.01	-9.302	0	0.71	1	1	7.0	4.23	4.12	4.0200000000000005	24.73	16	0.0	0.0	0.0	128	0.0	0.0	0.11	0.22	-40.6	0.0	-0.001	-0.005	0	0	0	0	4.0200000000000005	3.98	4.1	4.22	4.21	4.15	24.1	23.700000000000003	24.200000000000003	0	0	0	0	0	150	0	0	22	23	16	17	1	1	1	1	1	1	0	0	1	1	1
0.0	0.0	0.0	-0.00021119999999999998	0.028	-0.007	-9.316	0	0.7000000000000001	1	1	7.0	4.25	4.12	3.98	24.76	16	0.0	0.0	0.0	-32640	0.0	0.0	0.11	0.22	-40.61	0.001	-0.001	-0.004	0	0	0	0	4.01	4.05	4.08	4.17	4.24	4.21	24.1	23.6	24.200000000000003	0	0	0	0	0	150	0	0	22	23	16	17	1	1	1	1	1	1	0	0	1	1	1
0.0	0.0	0.0	-0.00021119999999999998	-0.033	-0.02	-9.332	0	0.74	1	1	7.0	4.22	4.11	4.0	24.68	16	0.0	0.0	0.0	-32640	0.0	0.0	0.11	0.22	-40.62	0.001	0.001	-0.004	0	0	0	0	4.01	3.98	4.11	4.14	4.18	4.13	24.1	23.700000000000003	24.200000000000003	0	0	0	0	0	150	0	0	22	23	16	17	1	1	1	1	1	1	0	0	1	1	1
0.0	0.0	0.0	-0.00021119999999999998	-0.03	-0.049	-9.3	0	0.72	1	1	7.0	4.15	4.08	4.0200000000000005	24.52	16	0.0	0.0	0.0	-32640	0.0	0.0	0.11	0.22	-40.62	0.0	0.001	-0.004	0	0	0	0	4.05	3.99	4.12	4.18	4.24	4.18	24.1	23.6	24.200000000000003	0	0	0	0	0	150	0	0	22	23	16	17	1	1	1	1	1	1	0	0	1	1	1
0.0	0.0	0.0	-0.0013184	0.012	-0.038	-9.302	0	0.72	1	1	7.0	4.19	4.1	4.0	24.6	16	0.0	0.0	0.0	128	0.0	0.0	0.11	0.21	-40.63	0.0	0.0	-0.005	0	0	0	0	4.07	3.99	4.08	4.17	4.2	4.21	24.1	23.6	24.200000000000003	0	0	0	0	0	150	0	0	22	23	16	17	1	1	1	1	1	1	0	0	1	1	1
0.0	0.0	0.0	0.0017984	0.04	-0.004	-9.337	0	0.72	1	1	7.0	4.18	4.11	4.01	24.69	16	0.0	0.0	0.0	128	0.0	0.0	0.11	0.21	-40.64	0.001	0.0	-0.005	0	0	0	0	4.0200000000000005	4.01	4.0600000000000005	4.14	4.14	4.13	24.1	23.6	24.200000000000003	0	0	0	0	0	150	0	0	22	23	16	17	1	1	1	1	1	1	0	0	1	1	1
0.0	0.0	0.0	-0.0013184	0.026000000000000002	-0.015	-9.345	0	0.72	1	1	7.0	4.16	4.09	4.0200000000000005	24.54	16	0.0	0.0	0.0	128	0.0	0.0	0.11	0.22	-40.64	0.0	0.001	-0.005	0	0	0	0	4.0200000000000005	4.0	4.14	4.24	4.29	4.24	24.1	23.6	24.200000000000003	0	0	0	0	0	150	0	0	22	23	16	17	1	1	1	1	1	1	0	0	1	1	1
0.0	0.0	0.0	0.0032384	-0.024	-0.052000000000000005	-9.341000000000001	0	0.72	1	1	7.0	4.13	4.0600000000000005	3.99	24.41	16	0.0	0.0	0.0	-32640	0.0	0.0	0.11	0.22	-40.65	0.0	0.0	-0.005	0	0	0	0	4.0	4.01	4.07	4.11	4.15	4.14	24.1	23.6	24.200000000000003	0	0	0	0	0	150	0	0	22	23	15	18	1	1	1	1	1	1	0	0	1	1	1
0.0	0.0	0.0	-0.0007616	-0.045	-0.051000000000000004	-9.32	0	0.72	1	1	7.0	4.18	4.1	4.01	24.62	16	0.0	0.0	0.0	-32640	0.0	0.0	0.11	0.21	-40.67	0.0	0.0	-0.005	0	0	0	0	4.07	4.0200000000000005	4.09	4.13	4.17	4.18	24.1	23.6	24.1	0	0	0	0	0	150	0	0	22	23	15	18	1	1	1	1	1	1	0	0	1	1	1
0.0	0.0	0.0	-0.002208	-0.007	-0.03	-9.335	0	0.73	1	1	7.0	4.16	4.09	3.98	24.54	16	0.0	0.0	0.0	-32640	0.0	0.0	0.11	0.21	-40.67	-0.001	0.0	-0.008	0	0	0	0	4.05	4.03	4.11	4.17	4.18	4.13	24.1	23.6	24.200000000000003	0	0	0	0	0	150	0	0	22	23	15	18	1	1	1	1	1	1	0	0	1	1	1
0.0	0.0	0.0	0.002688	0.03	-0.01	-9.297	0	0.71	1	1	7.0	4.2	4.1	4.01	24.63	16	0.0	0.0	0.0	128	0.0	0.0	0.11	0.21	-40.68	-0.001	0.0	-0.006	0	0	0	0	4.01	4.0	4.11	4.16	4.18	4.17	24.1	23.6	24.200000000000003	0	0	0	0	0	150	0	0	22	23	15	18	1	1	1	1	1	1	0	0	1	1	1
0.0	0.0	0.0	-0.0027584	0.031	-0.021	-9.295	0	0.7000000000000001	1	1	7.0	4.25	4.14	3.98	24.85	16	0.0	0.0	0.0	128	0.0	0.0	0.11	0.22	-40.68	0.0	0.001	-0.004	0	0	0	0	4.05	4.01	4.12	4.17	4.2	4.26	24.1	23.700000000000003	24.200000000000003	0	0	0	0	0	150	0	0	22	23	17	17	1	1	1	1	1	1	0	0	1	1	1
0.0	0.0	0.0	0.002688	-0.034	-0.004	-9.274000000000001	0	0.7000000000000001	1	1	7.0	4.24	4.11	3.98	24.71	16	0.0	0.0	0.0	-32640	0.0	0.0	0.12	0.22	-40.69	0.0	0.002	-0.005	0	0	0	0	4.05	4.01	4.09	4.12	4.16	4.17	24.1	23.5	24.200000000000003	0	0	0	0	0	150	0	0	22	23	17	17	1	1	1	1	1	1	0	0	1	1	1
0.0	0.0	0.0	-0.0027584	-0.013000000000000001	0.02	-9.342	0	0.7000000000000001	1	1	7.0	4.18	4.09	4.01	24.580000000000002	16	0.0	0.0	0.0	-32640	0.0	0.0	0.12	0.22	-40.69	0.001	0.001	-0.006	0	0	0	0	4.0	3.99	4.08	4.11	4.16	4.13	24.1	23.6	24.200000000000003	0	0	0	0	0	150	0	0	22	23	17	17	1	1	1	1	1	1	0	0	1	1	1
0.0	0.0	0.0	-0.0027584	-0.006	-0.008	-9.368	0	0.72	1	1	7.0	4.22	4.12	4.0200000000000005	24.75	16	0.0	0.0	0.0	128	0.0	0.0	0.11	0.22	-40.7	0.0	0.0	-0.005	0	0	0	0	4.07	4.03	4.1	4.17	4.18	4.14	24.1	23.5	24.1	0	0	0	0	0	150	0	0	22	23	17	17	1	1	1	1	1	1	0	0	1	1	1
0.0	0.0	0.0	0.002688	-0.031	-0.006	-9.27	0	0.72	1	1	7.0	4.17	4.08	4.0200000000000005	24.53	16	0.0	0.0	0.0	128	0.0	0.0	0.11	0.22	-40.7	-0.001	0.0	-0.004	0	0	0	0	4.03	4.0200000000000005	4.14	4.21	4.25	4.23	24.1	23.6	24.200000000000003	0	0	0	0	0	150	0	0	22	23	15	17	1	1	1	1	1	1	0	0	1	1	1
0.0	0.0	0.0	0.0012416	0.014	0.0	-9.259	0	0.7000000000000001	1	1	7.0	4.2	4.1	4.01	24.62	16	0.0	0.0	0.0	128	0.0	0.0	0.11	0.22	-40.71	0.0	0.001	-0.005	0	0	0	0	4.03	3.98	4.1	4.16	4.17	4.15	24.1	23.700000000000003	24.200000000000003	0	0	0	0	0	150	0	0	22	23	15	17	1	1	1	1	1	1	0	0	1	1	1
0.0	0.0	0.0	0.0012416	-0.066	0.0	-9.351	0	0.6900000000000001	1	1	7.0	4.21	4.11	3.99	24.68	16	0.0	0.0	0.0	-32640	0.0	0.0	0.12	0.21	-40.730000000000004	0.0	0.0	-0.007	0	0	0	0	4.03	4.04	4.14	4.17	4.17	4.18	24.1	23.6	24.1	0	0	0	0	0	150	0	0	22	23	15	17	1	1	1	1	1	1	0	0	1	1	1
0.0	0.0	0.0	-0.0016512	-0.044	-0.013000000000000001	-9.313	0	0.7000000000000001	1	1	7.0	4.17	4.09	4.01	24.55	16	0.0	0.0	0.0	-32640	0.0	0.0	0.12	0.21	-40.730000000000004	0.0	0.0	-0.007	0	0	0	0	4.04	4.01	4.07	4.13	4.2	4.19	24.1	23.6	24.200000000000003	0	0	0	0	0	150	0	0	22	23	15	17	1	1	1	1	1	1	0	0	1	1	1
0.0	0.0	0.0	-0.002208	0.022	-0.004	-9.302	0	0.6900000000000001	1	1	7.0	4.17	4.1	4.0	24.6	16	0.0	0.0	0.0	-32640	0.0	0.0	0.11	0.21	-40.730000000000004	0.0	0.001	-0.005	0	0	0	0	4.01	4.03	4.1	4.14	4.18	4.18	24.1	23.6	24.200000000000003	0	0	0	0	0	150	0	0	22	23	15	17	1	1	1	1	1	1	0	0	1	1	1
0.0	0.0	0.0	0.0012416	-0.038	-0.001	-9.372	0	0.71	1	1	7.0	4.24	4.12	3.99	24.740000000000002	16	0.0	0.0	0.0	128	0.0	0.0	0.12	0.22	-40.75	0.0	0.001	-0.007	0	0	0	0	4.0200000000000005	3.99	4.12	4.18	4.21	4.16	24.1	23.6	24.1	0	0	0	0	0	150	0	0	22	23	15	17	1	1	1	0	1	1	0	0	1	1	1
0.0	0.0	0.0	-0.0027584	-0.057	0.013000000000000001	-9.346	0	0.6900000000000001	1	1	7.0	4.18	4.1	4.04	24.62	16	0.0	0.0	0.0	-32640	0.0	0.0	0.12	0.21	-40.75	0.0	0.0	-0.007	0	0	0	0	4.05	3.98	4.09	4.14	4.18	4.16	24.1	23.700000000000003	24.200000000000003	0	0	0	0	0	150	0	0	22	23	15	17	1	1	1	1	1	1	0	0	1	1	1
0.0	0.0	0.0	0.0023423999999999997	-0.005	-0.022	-9.354000000000001	0	0.71	1	1	7.0	4.2	4.1	3.98	24.650000000000002	16	0.0	0.0	0.0	-32640	0.0	0.0	0.12	0.21	-40.76	-0.003	0.0	-0.005	0	0	0	0	4.0	3.99	4.08	4.17	4.18	4.15	24.1	23.700000000000003	24.200000000000003	0	0	0	0	0	150	0	0	22	23	15	17	1	1	1	1	1	1	0	0	1	1	1
0.0	0.0	0.0	0.0023423999999999997	0.03	-0.008	-9.281	0	0.71	1	1	7.0	4.18	4.09	3.99	24.580000000000002	16	0.0	0.0	0.0	128	0.0	0.0	0.12	0.21	-40.77	-0.001	0.0	-0.004	0	0	0	0	4.01	4.0	4.04	4.13	4.14	4.1	24.1	23.6	24.200000000000003	0	0	0	0	0	150	0	0	22	23	16	18	1	1	1	1	1	1	0	0	1	1	1
0.0	0.0	0.0	0.0012416	0.063	-0.013000000000000001	-9.315	0	0.6900000000000001	1	1	7.0	4.2	4.11	3.99	24.66	16	0.0	0.0	0.0	128	0.0	0.0	0.11	0.21	-40.78	0.0	0.0	-0.004	0	0	0	0	4.03	4.0	4.08	4.15	4.18	4.2	24.1	23.6	24.200000000000003	0	0	0	0	0	150	0	0	22	23	16	18	1	1	1	1	1	1	0	0	1	1	1
0.0	0.0	0.0	0.0023423999999999997	-0.027	-0.021	-9.334	0	0.68	1	1	7.0	4.23	4.12	4.01	24.76	16	0.0	0.0	0.0	128	0.0	0.0	0.12	0.21	-40.78	-0.001	0.001	-0.005	0	0	0	0	4.01	4.0200000000000005	4.09	4.08	4.11	4.14	24.1	23.700000000000003	24.1	0	0	0	0	0	150	0	0	22	23	16	18	1	1	1	1	1	1	0	0	1	1	1
0.0	0.0	0.0	0.0023423999999999997	0.005	-0.041	-9.351	0	0.71	1	1	7.0	4.13	4.08	4.01	24.51	16	0.0	0.0	0.0	-32640	0.0	0.0	0.12	0.21	-40.79	0.0	0.001	-0.004	0	0	0	0	4.03	3.98	4.11	4.18	4.18	4.18	24.1	23.6	24.200000000000003	0	0	0	0	0	150	0	0	22	23	16	18	1	1	1	1	1	1	0	0	1	1	1
0.0	0.0	0.0	0.00023679999999999998	0.033	-0.038	-9.366	0	0.7000000000000001	1	1	7.0	4.19	4.1	4.0200000000000005	24.650000000000002	16	0.0	0.0	0.0	-32640	0.0	0.0	0.12	0.21	-40.79	0.0	0.001	-0.004	0	0	0	0	4.0	4.0	4.12	4.15	4.18	4.17	24.1	23.700000000000003	24.200000000000003	0	0	0	0	0	150	0	0	22	23	16	17	1	1	1	1	1	1	0	0	1	1	1
0.0	0.0	0.0	0.00023679999999999998	0.042	-0.052000000000000005	-9.309000000000001	0	0.72	1	1	7.0	4.16	4.08	4.0	24.5	16	0.0	0.0	0.0	128	0.0	0.0	0.12	0.21	-40.800000000000004	0.0	-0.001	-0.004	0	0	0	0	4.04	4.01	4.0600000000000005	4.13	4.19	4.19	24.1	23.6	24.200000000000003	0	0	0	0	0	150	0	0	22	23	16	17	1	1	1	1	1	1	0	0	1	1	1
0.0	0.0	0.0	0.0007936	0.025	-0.019	-9.322000000000001	0	0.6900000000000001	1	1	7.0	4.24	4.13	4.0	24.8	16	0.0	0.0	0.0	128	0.0	0.0	0.12	0.21	-40.81	0.0	0.0	-0.004	0	0	0	0	4.03	4.0200000000000005	4.07	4.09	4.16	4.13	24.1	23.6	24.200000000000003	0	0	0	0	0	150	0	0	22	23	16	17	1	1	1	1	1	1	0	0	1	1	1
0.0	0.0	0.0	-0.00031999999999999997	0.033	-0.009000000000000001	-9.292	0	0.6900000000000001	1	1	7.0	4.19	4.12	4.0200000000000005	24.75	16	0.0	0.0	0.0	128	0.0	0.0	0.12	0.21	-40.81	0.0	0.001	-0.005	0	0	0	0	4.0	3.98	4.07	4.1	4.15	4.13	24.1	23.6	24.200000000000003	0	0	0	0	0	150	0	0	22	23	16	17	1	1	1	1	1	1	0	0	1	1	1
0.0	0.0	0.0	0.00023679999999999998	0.012	-0.038	-9.394	0	0.6900000000000001	1	1	7.0	4.14	4.08	4.0	24.5	16	0.0	0.0	0.0	-32640	0.0	0.0	0.12	0.21	-40.82	0.0	0.0	-0.006	0	0	0	0	4.0	4.0	4.0600000000000005	4.14	4.18	4.14	24.1	23.700000000000003	24.200000000000003	0	0	0	0	0	150	0	0	22	23	16	17	1	1	1	1	1	1	0	0	1	1	1
0.0	0.0	0.0	-0.0023168	0.015	-0.075	-9.344	0	0.7000000000000001	1	1	7.0	4.19	4.09	4.0	24.560000000000002	16	0.0	0.0	0.0	-32640	0.0	0.0	0.12	0.21	-40.83	0.0	0.0	-0.004	0	0	0	0	4.03	3.99	4.07	4.14	4.16	4.16	24.1	23.6	24.200000000000003	0	0	0	0	0	150	0	0	22	23	16	17	1	1	1	1	1	1	0	0	1	1	1
0.0	0.0	0.0	0.0007936	-0.003	-0.013000000000000001	-9.351	0	0.73	1	1	7.0	4.19	4.1	4.0	24.64	16	0.0	0.0	0.0	128	0.0	0.0	0.12	0.21	-40.84	0.001	0.0	-0.004	0	0	0	0	4.01	3.99	4.1	4.2	4.16	4.12	24.1	23.6	24.200000000000003	0	0	0	0	0	150	0	0	22	23	16	17	1	1	1	1	1	1	0	0	1	1	1
0.0	0.0	0.0	-0.00031999999999999997	0.07100000000000001	-0.045	-9.324	0	0.71	1	1	7.0	4.18	4.1	3.99	24.61	16	0.0	0.0	0.0	128	0.0	0.0	0.12	0.21	-40.84	0.0	-0.001	-0.003	0	0	0	0	4.0	4.01	4.12	4.18	4.22	4.23	24.1	23.6	24.1	0	0	0	0	0	150	0	0	22	23	16	17	1	1	1	1	1	1	0	0	1	1	1
0.0	0.0	0.0	0.0007936	0.093	-0.035	-9.313	0	0.68	1	1	7.0	4.21	4.11	4.04	24.71	16	0.0	0.0	0.0	128	0.0	0.0	0.12	0.21	-40.86	0.0	-0.001	-0.003	0	0	0	0	4.01	4.01	4.11	4.22	4.21	4.18	24.1	23.6	24.200000000000003	0	0	0	0	0	150	0	0	22	23	18	18	1	1	1	1	1	1	0	0	1	1	1
0.0	0.0	0.0	0.0007936	0.011	-0.1	-9.383000000000001	0	0.72	1	1	7.0	4.18	4.1	4.0	24.61	16	0.0	0.0	0.0	-32640	0.0	0.0	0.12	0.21	-40.88	0.0	0.0	-0.005	0	0	0	0	4.0200000000000005	4.03	4.12	4.15	4.19	4.21	24.1	23.6	24.200000000000003	0	0	0	0	0	150	0	0	22	23	18	18	1	1	1	1	1	1	0	0	1	1	1
0.0	0.0	0.0	-0.00031999999999999997	0.076	-0.056	-9.296	0	0.72	1	1	7.0	4.2	4.1	3.99	24.63	16	0.0	0.0	0.0	-32640	0.0	0.0	0.12	0.21	-40.89	0.0	-0.001	-0.004	0	0	0	0	4.03	4.0600000000000005	4.04	4.1	4.19	4.22	24.1	23.6	24.200000000000003	0	0	0	0	0	150	0	0	22	23	18	18	1	1	1	1	1	1	0	0	1	1	1
0.0	0.0	0.0	-0.00031999999999999997	0.07	-0.056	-9.353	0	0.68	1	1	7.0	4.2	4.1	4.0200000000000005	24.63	16	0.0	0.0	0.0	128	0.0	0.0	0.12	0.21	-40.89	0.0	0.0	-0.004	0	0	0	0	4.0	3.99	4.09	4.22	4.2	4.14	24.1	23.6	24.200000000000003	0	0	0	0	0	150	0	0	22	23	18	18	1	1	1	1	1	1	0	0	1	1	1
0.0	0.0	0.0	0.0016895999999999999	0.019	-0.064	-9.399000000000001	0	0.7000000000000001	1	1	7.0	4.19	4.1	3.98	24.63	16	0.0	0.0	0.0	128	0.0	0.0	0.11	0.21	-40.9	0.0	0.0	-0.003	0	0	0	0	4.0	3.99	4.09	4.15	4.15	4.14	24.1	23.6	24.200000000000003	0	0	0	0	0	150	0	0	22	23	18	18	1	1	1	1	1	1	0	0	1	1	1
0.0	0.0	0.0	0.0007936	-0.01	-0.05	-9.391	0	0.7000000000000001	1	1	7.0	4.22	4.12	4.0	24.75	16	0.0	0.0	0.0	128	0.0	0.0	0.11	0.21	-40.96	0.001	-0.002	-0.001	0	0	0	0	4.0	4.01	4.11	4.17	4.2	4.15	24.1	23.6	24.200000000000003	0	0	0	0	0	150	0	0	22	23	18	18	1	1	1	1	1	1	0	0	1	1	1
0.0	0.0	0.0	0.0007936	0.052000000000000005	-0.074	-9.344	0	0.6900000000000001	1	1	8.0	4.12	4.08	4.01	24.48	16	0.0	0.0	0.0	-32640	0.0	0.0	0.11	0.21	-40.97	-0.001	0.0	-0.001	0	0	0	0	4.0	4.0	4.13	4.14	4.17	4.12	24.1	23.6	24.1	0	0	0	0	0	150	0	0	22	23	18	18	1	1	1	1	1	1	0	0	1	1	1
0.0	0.0	0.0	0.0027968	0.069	-0.041	-9.359	0	0.7000000000000001	1	1	7.0	4.18	4.11	4.0	24.67	16	0.0	0.0	0.0	-32640	0.0	0.0	0.11	0.21	-40.97	0.0	-0.001	-0.007	0	0	0	0	4.01	4.01	4.13	4.12	4.18	4.1	24.1	23.700000000000003	24.200000000000003	0	0	0	0	0	150	0	0	22	23	18	18	1	1	1	1	1	1	0	0	1	1	1
0.0	0.0	0.0	0.0003456	0.08600000000000001	-0.084	-9.361	0	0.73	1	1	7.0	4.2	4.1	3.98	24.61	16	0.0	0.0	0.0	-32640	0.0	0.0	0.11	0.21	-40.980000000000004	0.0	-0.002	-0.002	0	0	0	0	4.0	4.0200000000000005	4.13	4.17	4.18	4.15	24.1	23.6	24.200000000000003	0	0	0	0	0	150	0	0	22	23	19	18	1	1	1	1	1	1	0	0	1	1	1
0.0	0.0	0.0	-0.0017599999999999998	0.017	-0.078	-9.326	0	0.71	1	1	8.0	4.18	4.09	3.99	24.59	16	0.0	0.0	0.0	128	0.0	0.0	0.11	0.21	-40.980000000000004	0.0	0.0	-0.003	0	0	0	0	4.0	3.98	4.11	4.17	4.18	4.13	24.1	23.6	24.200000000000003	0	0	0	0	0	150	0	0	22	23	19	18	1	1	1	1	1	1	0	0	1	1	1
0.0	0.0	0.0	-0.0023168	-0.009000000000000001	-0.095	-9.362	0	0.6900000000000001	1	1	7.0	4.25	4.14	3.98	24.85	16	0.0	0.0	0.0	128	0.0	0.0	0.11	0.22	-40.99	0.0	-0.001	-0.003	0	0	0	0	4.01	4.05	4.13	4.15	4.2	4.19	24.1	23.6	24.200000000000003	0	0	0	0	0	150	0	0	22	23	19	18	1	1	1	1	1	1	0	0	1	1	1
0.0	0.0	0.0	-0.0017599999999999998	0.031	-0.09	-9.375	0	0.7000000000000001	1	1	7.0	4.16	4.1	4.0	24.61	16	0.0	0.0	0.0	128	0.0	0.0	0.11	0.21	-40.99	0.001	0.0	-0.005	0	0	0	0	4.03	3.99	4.12	4.19	4.24	4.21	24.1	23.700000000000003	24.200000000000003	0	0	0	0	0	150	0	0	22	23	17	18	1	1	1	1	1	1	0	0	1	1	1
0.0	0.0	0.0	-0.0017599999999999998	0.031	-0.046	-9.335	0	0.6900000000000001	1	1	7.0	4.14	4.07	4.0	24.47	16	0.0	0.0	0.0	-32640	0.0	0.0	0.11	0.22	-41.0	0.0	-0.001	-0.003	0	0	0	0	4.0200000000000005	4.01	4.11	4.2	4.18	4.15	24.1	23.6	24.1	0	0	0	0	0	150	0	0	22	23	17	18	1	1	1	1	1	1	0	0	1	1	1
0.0	0.0	0.0	-0.0006527999999999999	0.065	-0.025	-9.302	0	0.7000000000000001	1	1	7.0	4.23	4.12	4.0200000000000005	24.73	16	0.0	0.0	0.0	-32640	0.0	0.0	0.11	0.22	-41.0	0.001	0.0	-0.005	0	0	0	0	4.0	4.0	4.12	4.17	4.19	4.13	24.1	23.700000000000003	24.200000000000003	0	0	0	0	0	150	0	0	22	23	17	18	1	1	1	1	1	1	0	0	1	1	1
